type,name,latitude,longitude,geometry_type,osm_id,amenity,building,phone,operator,operator_type,student_count,capacity_persons,capacity_beds,opening_hours,wheelchair,addr_street,addr_city,addr_ward,website
multipolygon,Adarsha Lower Secondary School,27.71359975,85.33126491875,Polygon,relation/2025798,school,school,01-417757,,government,101.0,,,,,,,,
multipolygon,Alok Vidyashram,27.70712023,85.34187589000001,Polygon,relation/4046810,school,,,,private,500.0,,,,,,,,
multipolygon,Mount Glory English Boarding High School,27.70603575,85.29878289166668,Polygon,relation/12266985,school,,01-4276477,,private,800.0,,,,,,,,
multipolygon,Future Star English Secondary School,27.707536325,85.30061665,Polygon,relation/12267162,school,,,,private,450.0,,,,,,,,
multipolygon,Gurukul Pearl's school,27.70302302,85.28594242,Polygon,relation/12271329,school,,,,private,178.0,,,,,,,,
multipolygon,Jana Prabhat Secondary School,27.698473505555555,85.29372237777778,Polygon,relation/12271768,school,,,,government,650.0,,,,,,,,
multipolygon,Modern Nepal Academy,27.71073292,85.29472478,Polygon,relation/12274530,school,,01-4301680,,private,350.0,,,,,,,,
multipolygon,Divyatara Boarding School,27.71235972,85.2879868,Polygon,relation/12274724,school,,,,private,120.0,,,,,,,,
multipolygon,Academy of Sacred Hearts,27.713944915384616,85.30350936923077,Polygon,relation/12286059,school,,,,private,200.0,,,,,,,,
multipolygon,Snow Apex Academy,27.70895852142857,85.32411553571428,Polygon,relation/15882210,school,,,,private,325.0,,,,,,,,
school,Tindhara Pathshala,27.709495466666667,85.31747633333333,Polygon,way/112654802,school,yes,,Nepal Sanskrit University,,,,,,,,,,
school,Lincoln School,27.694018041666663,85.29370985416666,Polygon,way/126322078,school,,,,,,,,,,,,,
school,Glacier International Higher Secondary School,27.68797283125,85.34538826875,Polygon,way/168839124,school,,4107803,,private,550.0,,,,,,,,
school,Jaljala Shishu Sadan Secondary School,27.70863816,85.30519343,Polygon,way/169078006,school,,,,private,400.0,,,,,,,,
school,Nava Adarsha Secondary School,27.703563433333333,85.30668123333334,Polygon,way/169429526,school,educational,,Nava Adarsha Secondary School,government,287.0,50andabove,,,,,,,
school,Cosmic International Academy,27.67487089642857,85.34534185714286,Polygon,way/172953244,school,,,,private,850.0,,,,,,,,
school,SOS koteshwar,27.67621418888889,85.34426858888888,Polygon,way/172954057,school,,,,,,,,,,,,,
school,Malpi International College,27.723945077777778,85.32803161111111,Polygon,way/177789379,school,,,,private,100.0,,,,yes,,,,
school,Malpi Primary School,27.71707243157895,85.32681169473685,Polygon,way/178914637,school,,,,private,210.0,,,,,,,,
school,Mount Gaurishankar School,27.72207627,85.32816552,Polygon,way/179465469,school,,,,private,200.0,,,,,,,,
school,Shaheed Shukra Secondary School,27.70349574444445,85.31870455555556,Polygon,way/179736868,school,,,,government,400.0,,,,,,,,
school,Samye Memorial Buddist Vihara,27.74003109230769,85.3440471923077,Polygon,way/180082302,school,,,,community,200.0,,,,,,,,
school,Phoenix College,27.7041716875,85.332185175,Polygon,way/180087479,school,school,,private,,,,,,,maitidevi,,,
school,Shiradi Sai Academy,27.7269144,85.33426203,Polygon,way/180349345,school,,,,private,155.0,,,,,,,,
school,Guheswari Higher Secondary School,27.694815409090907,85.35187547272727,Polygon,way/180933580,school,,,,government,1000.0,,,,,,,,
school,,27.68430284,85.34467993000001,Polygon,way/181340174,school,,,,,,,,,,TBD,Kathmandu,,
school,Arunima Higher Secondary School,27.71689420909091,85.35857738636363,Polygon,way/181376781,school,,,,private,2100.0,,,,,,,,
school,Samata School,27.7169639125,85.3606924625,Polygon,way/181376800,school,,,,private,1500.0,,,,,,,,
school,Bhimsengola Secondary School,27.6899697,85.34071954,Polygon,way/181976128,school,,4115709,,government,300.0,,,,,,,,
school,Ace Institute of Management,27.690800015384617,85.3391947076923,Polygon,way/181977687,school,,01410451,,private,900.0,,,,,,,,
school,Angel Lord Academy High School,27.6798828375,85.3475511625,Polygon,way/182040664,school,,,,private,480.0,,,,,,,,
school,V. S. Niketan HS School,27.68592380714286,85.34274875714286,Polygon,way/182979998,school,,,,private,2100.0,,,,,,,,
school,Shrijanshil English School,27.68835816,85.326411,Polygon,way/184109157,school,,,,,,,,,,,,,
school,Ekita International School,27.730008680000005,85.3359593,Polygon,way/185578988,school,,,,private,250.0,,,,,,,,
school,NIIT Kathmandu Center,27.709506633333334,85.31485394444445,Polygon,way/186144703,school,,,,,,,,,,,,,
school,जन प्रसासन केन्द्रिय विभाग,27.70954862,85.31526156,Polygon,way/186144710,school,,,,,,,,,,,,,http://cdpa.edu.np/
school,Shree Rani Bari Lower Secondary School,27.727304266666664,85.3209403,Polygon,way/187756136,school,,,,government,350.0,,,,,,,,
school,Kenji International School,27.681780550000003,85.34284285999999,Polygon,way/188322217,school,,,,private,125.0,,,,,,,,
school,Shree Tangal Higher Secondary School,27.71612408888889,85.33194618888889,Polygon,way/190005944,school,,,,government,900.0,,,,,,,,
school,Wendy's House,27.722576175,85.3332431125,Polygon,way/191189605,school,,,,private,170.0,,,,,,,,
school,The Spangle Boarding School,27.702178677777777,85.32624435555556,Polygon,way/191412300,school,,014424885,,private,315.0,,,,,,,,
school,Continental Academy,27.693016935714287,85.3506134,Polygon,way/191861070,school,,01-4108706,,private,206.0,,,,,,,,
school,Mount Gauri Shankar School,27.7217402,85.32814264,Polygon,way/192049641,school,yes,"00977 1 4423061,4438696",,,,,,,,,Kathmandu,,
school,Nepal Pathfinder Co-ed School,27.7028532,85.34592576,Polygon,way/192050727,school,,,,private,200.0,,,,,,,,
school,Sishu Niketan School,27.6998571875,85.3412654,Polygon,way/192307568,school,,,,private,225.0,,,,,,,,
school,Mahendra Rastriya Higher Secondary School,27.7250074125,85.3310181125,Polygon,way/192882935,school,,,,government,420.0,,,,no,,,,
school,Anapuram Vidya Sadan Elementary School,27.719799355555555,85.32376801111111,Polygon,way/193088953,school,,,,,,,,,,,,,
school,Best's Montessori Children's House,27.702314957142857,85.34023628571428,Polygon,way/194056909,school,,,private,,,,,,,,,,
school,Apex School,27.72637338,85.35596321333334,Polygon,way/194292909,school,,,,private,695.0,,,,,,,,
school,Baluwatar School,27.7265058,85.33434682,Polygon,way/196060481,school,school,,,private,50.0,,,,,,,,
school,Prime Time Pre-School,27.7345627,85.33677611428571,Polygon,way/196060510,school,,,,private,45.0,,,,,,,,
school,Sun Moon English School,27.73129493333333,85.32601577777777,Polygon,way/196838739,school,,427240,,private,7.0,,,,,,,,
school,Shivapuri High School,27.73058028888889,85.33017885555556,Polygon,way/196950152,school,,,,government,1300.0,,,,,,,,
school,GCA higer secondary school,27.731367440000003,85.31839769999999,Polygon,way/197144818,school,yes,,private,,,,,9:00-16:00,,ranibari samakhusi marga,kathmandu municipality,,
school,Minar English Boarding School,27.74220644,85.33540392,Polygon,way/197486695,school,,,,private,130.0,,,,,,,,
school,Glen BUDS Secondary School,27.73546492,85.32784432,Polygon,way/197753615,school,,,,private,250.0,,,,,,,,
school,Shri Pashupati Mitra Secondary School,27.71646936428571,85.34588362857143,Polygon,way/198024439,school,,,,government,2000.0,,,,,,,,
school,shree amritanksha jadibuti udyog,27.72023074,85.33411156,Polygon,way/198118238,school,yes,,private,,,,,,,bishalnagar,municipality,4.0,
school,St. George International School,27.72053935454545,85.33815341818182,Polygon,way/198118487,school,,,,private,350.0,,,,,,,,
school,Euro School,27.7193495,85.33533105333335,Polygon,way/198635907,school,,,,,,,,,,,,,
school,Meridian International School,27.727882045454542,85.32634933636363,Polygon,way/198893865,school,,,,private,1000.0,,,,,,,,
school,Ashirwad Boarding School,27.72809659375,85.33304473125,Polygon,way/199011348,school,,,,private,300.0,,,,,,,,
school,New Knowledge Boarding Secondary School,27.730423366666667,85.33555793333333,Polygon,way/199785860,school,,,,private,350.0,,,,,,,,
school,nawa jeewan sisu niketan,27.67087874,85.34627964,Polygon,way/199964916,school,,,private,,,,,8:00-6:00,,nahar marga,kathmandu municipality,,
school,Sanskar School,27.72948056,85.33943838,Polygon,way/200101355,school,,01-4428766,,,,,,,,,,,
school,Maple School,27.70660904,85.32649563999999,Polygon,way/201380500,school,,,,,,,,,,,,,
school,Sigma Higher Secondary School,27.718319880000003,85.30801104,Polygon,way/202773359,school,,,,,,,,,no,,,,
school,Shanti Nikanj School,27.70449235555556,85.30383215185185,Polygon,way/202983099,school,,,,government,900.0,,,,,,,,
school,J.P. School,27.71242234,85.30990345000001,Polygon,way/203098747,school,,,,government,1200.0,,,,,,,,
school,Bon Sky Lark INt. School,27.7183755,85.32229694,Polygon,way/203573932,school,,,private,,,,,08:00-17:00,,Hospital Margh,,,
school,Seasons Academic Boarding School,27.694164885714287,85.33870918571428,Polygon,way/203968995,school,yes,014473867,,,,,,,,,,,
school,Columbus School,27.6872765,85.33119285,Polygon,way/204099236,school,school,,Columbus School,,,,,,,,,,
school,Ankur Vidyashram,27.70143148888889,85.34621432222222,Polygon,way/205714652,school,,,,private,300.0,,,,,,,,
school,Nepal Music School,27.702183605882357,85.34860907647058,Polygon,way/205724200,school,,,,community,500.0,,,,,,,,
school,Shambhavi School,27.7058848,85.3441045,Polygon,way/205874172,school,,,,private,385.0,,,,,,,,
school,Himalaya Vidya Mandir Higher Secondary School,27.709902184615387,85.33872659999999,Polygon,way/206055275,school,,,,private,250.0,,,,,,,,
school,Venus English School,27.7000888375,85.3475374,Polygon,way/206100460,school,,,,private,130.0,,,,,,,,
school,New English School,27.7171139125,85.35218655,Polygon,way/206343634,school,,,,private,470.0,,,,,,,,
school,The Chanbagh School (SLC Block),27.74461677142857,85.34284798571427,Polygon,way/206508440,school,,,,private,703.0,,,,,,,,
school,Alliance Academy Higher Secondary School,27.691731644444445,85.33085375555555,Polygon,way/206762991,school,yes,014493198,Aliance Academy Higher Secondary School,private,500.0,,,,,,,,
school,Golden Peak High School,27.725957758333333,85.35411710833334,Polygon,way/206835937,school,,,,private,540.0,,,,,,,,
school,Sagarmatha High School,27.726554191666665,85.353159275,Polygon,way/206840867,school,,,,private,400.0,,,,,,,,
school,,27.68696984,85.33590268,Polygon,way/206848560,school,college,,Swoyambhu College/Prime CA,,,,,,,,,,
school,Pathshala Nepal Foundation,27.694640981818186,85.33291442727273,Polygon,way/207150005,school,,"01- 4490451, 4495653",,private,600.0,,,,,,,,https://pathshala.edu.np/
school,Moral Academy,27.69556022,85.33691832,Polygon,way/207265905,school,,,,,,,,,,,,,
school,Prefect Educational Institute,27.69431285714285,85.33923925714285,Polygon,way/207268965,school,yes,,,,,,,,,,,,
school,Ananda Kuti Vidyapeth,27.7159205945946,85.28676552162163,Polygon,way/207298033,school,,,,,,,,,yes,,,,
school,Nepal Ideal School,27.69701391818182,85.3373421909091,Polygon,way/207416843,school,,4470773,,private,285.0,,,,,,,,
school,Sitala Higher Secondary School,27.7369342375,85.2947900125,Polygon,way/207464038,school,,01-5102076,,government,450.0,,,,,,,,
school,Vidya Sadan School,27.7242389625,85.3492109625,Polygon,way/208172022,school,,,,private,80.0,,,,,,,,
school,Twinkle Toes Infant School,27.73302092,85.29871034,Polygon,way/209129746,school,,,,private,70.0,,,,,,,,
school,,27.71974588,85.36240916,Polygon,way/209529915,school,school,,Madan Bhandari Memorial Ebs,,,,,,,,,,
school,mohan siddartha H.S. school,27.71532808,85.35669723999999,Polygon,way/209530175,school,yes,,private,,,,,,,boudha marg,municipality,6.0,
school,Gitanjali Secondary School,27.709921945454543,85.30734818181817,Polygon,way/210579938,school,yes,,private,,,,,10:00-17:00,,Khushi Bu,,,
school,Bonsai Academy,27.69018588,85.28649573999999,Polygon,way/210706863,school,yes,,Private,,,,,Su-Fr 09:00-15:00,,Sunar Gau Marg,Kathmandu Municipality,,
school,Bhrikuti Secondary School,27.72665748260869,85.35701280434782,Polygon,way/211260702,school,,,,private,400.0,,,,,,,,
school,Marvellous English Boarding School,27.70280416,85.33375767999999,Polygon,way/211752795,school,school,,marvellous english boarding school,private,450.0,,,,,,,,
school,Pious English Boarding School,27.70066612,85.33237574,Polygon,way/211752904,school,school,01-4439103,,private,225.0,,,,,,,,
school,nilkantha secondary boarding school,27.71981118333333,85.36412912499999,Polygon,way/211905458,school,yes,,private,,,,,09:00 - 5:00,,"nageshwor galli, boudha marg",municipality,6.0,
school,Shree Krishna Prabha Primary School,27.718556333333336,85.33651307500001,Polygon,way/213694297,school,,+977 4438470,,government,90.0,,,,,,,,
school,Little Children Academy,27.716568961538464,85.33539133076923,Polygon,way/213699273,school,,,,private,245.0,,,,,,,,
school,Axis International Higher Secondary School,27.69570382,85.34423819999999,Polygon,way/214073368,school,,4109225,,private,160.0,,,,,,,,
school,Faryland Boarding School,27.72035716,85.32561304000001,Polygon,way/214961077,school,,,private,private,215.0,,,10:00-17:00,,Nil Saraswoti Sthan,,,
school,John Dewey School,27.73125879375,85.32983085625,Polygon,way/215053611,school,,,,private,150.0,,,,,,,,
school,Morning Bells Montessori,27.731555300000004,85.32944642,Polygon,way/215053613,school,,,,private,60.0,,,,,,,,
school,Ananda Bhumi High School,27.70544754,85.33435716,Polygon,way/215212424,school,,,,private,450.0,,,,,,,,
school,Bal Bagaicha,27.705279385714285,85.32955419999999,Polygon,way/215212425,school,,,,private,60.0,,,,,,,,
school,Maitidevi Boarding High School,27.703862333333333,85.32811576666667,Polygon,way/215212426,school,,,,private,275.0,,,,,,,,
school,Advanced English Boarding High School,27.71638292173913,85.33745868695652,Polygon,way/216441227,school,,,,private,430.0,,,,,,,,
school,Boston International High School,27.712475,85.33652696363636,Polygon,way/216441228,school,,,,private,300.0,,,,,,,,
school,New Sunshine Secondary School,27.717755957142856,85.33869897857143,Polygon,way/216441231,school,,,,private,400.0,,,,,,,,
school,Xavier International School,27.715686,85.33761479,Polygon,way/216441234,school,,,,private,600.0,,,,,,,,
school,Nandi Secondary School,27.71372771764706,85.32535872941176,Polygon,way/216443377,school,,01-4411754,,government,981.0,,,,,,,,
school,Albert English Boarding School,27.70631744,85.33467097,Polygon,way/216607331,school,,01-4425936,,private,400.0,,,,,,,,
school,Apple Academy,27.7085185,85.3354371375,Polygon,way/216607332,school,,01-4418856,,private,350.0,,,,,,,,
school,Little Flower Secondary School,27.70870257142857,85.33406803571428,Polygon,way/216607333,school,,01-4422549,,private,330.0,,,,,,,,
school,Martyrs' Memorial Boarding Secondary School,27.70967190833333,85.33612543333334,Polygon,way/216607334,school,,,,private,450.0,,,,,,,,
school,Sai Educare Boarding High School,27.70978315833333,85.33643076666668,Polygon,way/216607335,school,,,,private,140.0,,,,,,,,
school,Eden Public School,27.71699046666667,85.34335213333333,Polygon,way/216612476,school,,,,private,325.0,,,,,,,,
school,Shridiwa International School,27.7184126,85.33794637777777,Polygon,way/216612478,school,,,,private,300.0,,,,,,,,
school,Subharambha Secondary School,27.71755296666667,85.34243613333332,Polygon,way/216612479,school,,,,private,200.0,,,,,,,,
school,Clinton School,27.71729222,85.34383276,Polygon,way/216612503,school,,,,private,300.0,,,,,,,,
school,Holy Care School,27.744018727777775,85.34533388888889,Polygon,way/216704725,school,,,,private,225.0,,,,,,,,
school,The Chandbagh Pre-School,27.74276917857143,85.34496620714286,Polygon,way/216705045,school,,4017105,,private,60.0,,,,,,,,
school,Elim Kids Academy,27.734272344444445,85.33221286666667,Polygon,way/216705741,school,,,,private,260.0,,,,,,,,
school,Gorakshya Dibya Nikhil Jyoti Vidyashram,27.738663022222223,85.3291121,Polygon,way/216705742,school,,,,community,400.0,,,,,,,,
school,Whiz Kids International School,27.72797612222222,85.33012364444444,Polygon,way/216914206,school,,,,private,380.0,,,,,,,,
school,Anupam Higher Secondary School,27.71988963636364,85.3256297,Polygon,way/216931869,school,,,,private,400.0,,,,,,,,
school,Newton High School,27.725717322222224,85.33646183333333,Polygon,way/216931872,school,,,,private,630.0,,,,,,,,
school,Bellmount International School,27.73166970909091,85.31710786363637,Polygon,way/216935005,school,,,,private,300.0,,,,,,,,
school,Diptimaya Bal Awasiya Vidyalaya,27.73087148,85.32417716,Polygon,way/216935006,school,,,,private,150.0,,,,,,,,
school,Motherland Academy,27.72201348181818,85.33110853636363,Polygon,way/216939553,school,,01 4427831,,private,300.0,,,,,,,,www.motherlandschool.edu.np
school,New Leera School,27.721076886666665,85.32880238666667,Polygon,way/216939554,school,,,,private,360.0,,,,,,,,
school,Learning Zone Academy,27.730668758333334,85.31768139166667,Polygon,way/217106760,school,,,,private,350.0,,,,,,,,
school,Suryodaya Jyoti Awasiya English Boarding School,27.703683688888887,85.33025047777778,Polygon,way/217523977,school,,014433619,,private,450.0,,,,,,,,
school,Charumati English School,27.716585391666666,85.34377214166666,Polygon,way/217525517,school,,,,private,260.0,,,,,,,,
school,Texas International School,27.712837185714285,85.34114914285715,Polygon,way/217525521,school,,,,private,,,,,,,,,
school,Jagat Mandir English Boarding School,27.71520772,85.34240872000001,Polygon,way/217525626,school,,,,private,500.0,,,,,,,,
school,nepal mega school,27.69679375714286,85.3300358,Polygon,way/217526506,school,,01-4232343,,private,300.0,,,,,,,,
school,City Montessori,27.7002048,85.32883705555555,Polygon,way/217526507,school,,01-44771037,,private,125.0,,,,,,,,
school,Paradise International Academy,27.71325102,85.33920808,Polygon,way/217526987,school,,,,private,275.0,,,,,,,,
school,Creative English School,27.71408202857143,85.3433717857143,Polygon,way/217533470,school,,,,private,280.0,,,,,,,,
school,National Orchid Boarding School,27.715154109090907,85.34388831818183,Polygon,way/217535658,school,,,,private,400.0,,,,,,,,
school,Mahendra Bhawan Higher Secondary School,27.712990929166665,85.3339794625,Polygon,way/217607659,school,,,,community,300.0,,,,limited,,,,
school,Bijaya Smarak Higher Secondary School,27.70494858695652,85.3268359173913,Polygon,way/217608186,school,,,,government,900.0,,,,yes,,,,
school,Padma Gyan Mandir English School,27.71713232,85.33642442,Polygon,way/217616641,school,,,,private,125.0,,,,,,,,
school,Vidya Sadan High School,27.72313653333333,85.3506023,Polygon,way/217616698,school,school,,Bidhaya Sadan High School,private,350.0,,,,,,,,
school,Jeevan Jyoti Baikalpik School,27.723768390909093,85.34661507272727,Polygon,way/217617107,school,school,,Jeevan Jyoti Baikalpik School,private,70.0,,,,,,,,
school,Tashi Waldorf School,27.741643416666665,85.33932166666666,Polygon,way/217617209,school,,,,private,60.0,,,,,,,,
school,Universal College Preparatory School,27.72636101875,85.3350045875,Polygon,way/217622177,school,,,,private,540.0,,,,,,,,
school,Compact English School,27.71867197142857,85.33492898571428,Polygon,way/217622732,school,,4420343,,private,110.0,,,,,,,,
school,Children's Model High School,27.72419282857143,85.33275846428572,Polygon,way/217622812,school,,,,private,270.0,,,,,,,,
school,Alakapuri Boarding High School,27.72079685,85.33566045,Polygon,way/217622833,school,,,,private,200.0,,,,,,,,
school,Anmol Jyoti Secondary English Boarding School,27.714181558333333,85.33546816666666,Polygon,way/217654467,school,,,,private,415.0,,,,,,,,
school,Anmol Jyoti Secondary School,27.71382218,85.33496024,Polygon,way/217656357,school,,,,,,,,,,,,,
school,Columbus International School,27.7136586,85.335238475,Polygon,way/217720479,school,,,,private,250.0,,,,,,,,
school,Baluwatar School,27.72649045,85.33432473333333,Polygon,way/217723736,school,,,,government,50.0,,,,,,,,
school,St. Julian English Boarding School,27.72397885,85.35204943333333,Polygon,way/217724333,school,,,,private,35.0,,,,,,,,
school,The Elite's Co-Ed,27.7121365,85.3298713375,Polygon,way/217727953,school,,,,private,220.0,,,,yes,,Kathmandu,,
school,,27.70449977,85.30358202,Polygon,way/217957279,school,yes,,Shanti Nikunj School,,,,,,,,,,
school,Global Public School,27.69584148,85.36713160000001,Polygon,way/218352812,school,,,private,,,,,9:00-16:00,,chuchuro marga,kathmandu municipality,,
school,Ashraya Vidya Sadan,27.70336371538462,85.30376977692308,Polygon,way/218429130,school,,,,private,450.0,,,,,,,,
school,Kalash Vidya Mandir,27.70304488,85.30369636,Polygon,way/218429131,school,,,,private,230.0,,,,,,,,
school,Paropakar Higher Secondary School,27.701777420000003,85.303277395,Polygon,way/218430310,school,,,,government,500.0,,,,,,,,
school,English Preparatory School,27.6999042,85.30801292222222,Polygon,way/218433448,school,yes,,,private,250.0,,,,,,,,
school,Shree Saraswati Niketan Secondary School,27.698917060000003,85.30403698,Polygon,way/218433450,school,,,,government,650.0,,,,,,,,
school,Gautam English Boarding School,27.70033988333333,85.30804763333333,Polygon,way/218441369,school,,,,private,180.0,,,,,,,,
school,Kathmandu Model School,27.719202560000003,85.30535042,Polygon,way/218464703,school,,01-4360464,,private,400.0,,,,,,,,
school,A.V.M Secondary School,27.72087787272727,85.29738232727273,Polygon,way/218573677,school,,,,private,350.0,,,,,,,,
school,Paradise English Secondary School,27.7230647,85.29996566,Polygon,way/218574909,school,,01-4357205,,private,290.0,,,,,,,,
school,Namuna English Boarding School,27.7034523,85.3032082111111,Polygon,way/218576371,school,,,,private,200.0,,,,,,,,
school,Columbus College,27.68608719,85.33485465999999,Polygon,way/218583059,school,,"4781747, 4784883",,private,350.0,,,,,,,,
school,Kavya School,27.687563981818183,85.3347925,Polygon,way/218583062,school,,01-4780214/310,,private,200.0,,,,,,,,
school,Kids Land Montessori Based School,27.68744574,85.33572298,Polygon,way/218583064,school,,01620399,,private,30.0,,,,,,,,
school,Swoyambhu College/Prime CA,27.6869938375,85.3357383375,Polygon,way/218583065,school,,,,private,400.0,,,,,,,,
school,Gyan Niketan School,27.68388197,85.33363207,Polygon,way/218587567,school,,4783688/ 756,,private,500.0,,,,,,,,
school,Shuvadeep Primary School,27.69787578,85.31078732,Polygon,way/218689327,school,,,,government,190.0,,,,,,,,
school,Madan Bhandari Memorial English Boarding School,27.719710780000003,85.36245174000001,Polygon,way/218982315,school,,,,community,357.0,,,,,,,,
school,Kathmandu International School,27.713149813636367,85.35328814090909,Polygon,way/218983251,school,,,,private,900.0,,,,,,,,
school,Hilary High School,27.71400153333333,85.34961801666667,Polygon,way/218983815,school,,,,private,400.0,,,,,,,,
school,Som Sarala Ved Vidhyala,27.71389532,85.34987326000001,Polygon,way/218983816,school,,,,community,15.0,,,,,,,,
school,Gyandeep Siksha Sadan,27.71473426,85.3498704,Polygon,way/218984209,school,,,,private,250.0,,,,,,,,
school,Vishwa Niketan Higher Secondary School,27.69287765833333,85.31178204999999,Polygon,way/218986249,school,,,,government,2200.0,,,,no,,Kathmandu,,
school,Mahan Siddhartha High School,27.71534872,85.35453822,Polygon,way/218986452,school,,,,private,600.0,,,,,,,,
school,Shree Bal Byabasayi Kendra Secondary School,27.71073874,85.34055885000001,Polygon,way/218993943,school,,,,government,500.0,,,,yes,,,,
school,Deerwalk Sifal School,27.71195235,85.34142098333332,Polygon,way/218994582,school,,+977 01 4478482,,private,375.0,,,Mo-Fr 09:00-18:00,,Jaya Bagheshwori Marga,Kathmandu,,https://deerwalk.edu.np/sifalschool/
school,Seto Bangla Boarding School,27.71162414,85.33815376,Polygon,way/218995225,school,,,,private,130.0,,,,,,,,
school,Mount View School,27.71370011666667,85.34356931666667,Polygon,way/218996294,school,,,,private,250.0,,,,,,,,
school,Indrawati Public School,27.7151690375,85.3592053,Polygon,way/218996765,school,,,,private,400.0,,,,,,,,
school,Buddha Pashupati Academy,27.71541978333333,85.36006515000001,Polygon,way/218996984,school,,,,private,150.0,,,,,,,,
school,Lords Light Academy,27.71557211111111,85.36416544444445,Polygon,way/218997258,school,,,,private,650.0,,,,,,,,
school,HEMS School,27.70869346,85.33785359999999,Polygon,way/218998068,school,,,,private,500.0,,,,yes,,,,
school,Nepal Adarsha Secondary School,27.70072555,85.3095221,Polygon,way/219001123,school,,,,government,425.0,,,,,,,,
school,Nirmal Vidyapeeth Secondary School,27.701500975,85.309424425,Polygon,way/219001310,school,,,,government,200.0,,,,,,,,
school,Bal Sewa Secondary School,27.7026858,85.30849923333334,Polygon,way/219001687,school,,,,government,200.0,,,,,,,,
school,Bidhyodaya Secondary School,27.70252082,85.30714544,Polygon,way/219002367,school,school,,Bidhyodaya Secondary School,government,100.0,,,,,,,,
school,Angel's World International Academy,27.74056292727273,85.3335598,Polygon,way/219174110,school,,,,private,300.0,,,,,,,,
school,Himalaya Higher Secondary School,27.679432117391304,85.34825420869565,Polygon,way/219197831,school,,01-4600320,,private,850.0,,,,,,,,
school,Canvas International Higher Secondary School,27.72641534,85.31765717,Polygon,way/219208221,school,,,,private,275.0,,,,,,,,
school,Nepal Police School,27.733025525,85.318822125,Polygon,way/219221073,school,,,,private,750.0,,,,,,,,
school,Amity Wits Co-Education English Secondary School,27.73474674,85.32092123,Polygon,way/219223399,school,,,,private,400.0,,,,,,,,
school,My Land Academy,27.732274440000005,85.32022518,Polygon,way/219223400,school,,,,private,60.0,,,,,,,,
school,Oracle Ray Academy,27.73341404285714,85.31943144285715,Polygon,way/219223401,school,,,,private,300.0,,,,,,,,
school,Takshashila Academy,27.73309691111111,85.31985016666667,Polygon,way/219223402,school,,,,private,300.0,,,,,,,,
school,Janajagriti Gyan Rashmi Secondary School,27.73008671428571,85.29473274285715,Polygon,way/219227506,school,,01-4851720,,community,544.0,,,,,,,,
school,Olympia World Higher Secondary School,27.688536853846152,85.32764036153846,Polygon,way/219268454,school,,"4220449,4220265",,private,250.0,,,,yes,,,,
school,South Point Boarding High School (Junior block),27.6886216,85.32853250000001,Polygon,way/219268455,school,,,,private,160.0,,,,,,,,
school,Rose Bud School,27.687960011111112,85.3249087,Polygon,way/219268469,school,,01-4783003,,private,1500.0,,,,,,,,
school,Heartland Montessori Based Pre-School and Child Care Center,27.68445426363636,85.33282378181819,Polygon,way/219276285,school,,,,private,80.0,,,,,,,,
school,Kavya School,27.68690477333333,85.33177599333334,Polygon,way/219276292,school,,"01-4783312, 01-4780310",,private,225.0,,,,,,,,
school,Rara Secondary School,27.68908196,85.35028890666668,Polygon,way/219358205,school,,,,private,250.0,,,,,,,,
school,Apple International School,27.6874110625,85.3475340125,Polygon,way/219358673,school,,,,private,250.0,,,,,,,,
school,Good Shepherd School,27.67923815,85.3456985875,Polygon,way/219364256,school,,01-4600927,,private,130.0,,,,,,,,
school,Nava Jyoti Higher Secondary School (Junior Block),27.67883727142857,85.34710684285713,Polygon,way/219364258,school,,01-4600389,,private,300.0,,,,,,,,
school,New Vision Academy,27.67575099090909,85.34332654545454,Polygon,way/219366304,school,,,,private,500.0,,,,,,,,
school,Bon Skylark International Secondary School,27.719115016666667,85.34603895,Polygon,way/219393813,school,,,,private,285.0,,,,,,,,
school,Sagarmatha Vidya Mandir,27.71524126,85.34719052,Polygon,way/219397381,school,,,,private,120.0,,,,,,,,
school,Elixir Academy,27.71451082173913,85.3543784,Polygon,way/219400172,school,,,,private,450.0,,,,,,,,
school,Prerana School,27.71573478333333,85.3510265,Polygon,way/219401229,school,,,,private,250.0,,,,,,,,
school,Prerana School,27.71577187142857,85.35081091428572,Polygon,way/219401230,school,,,,,,,,,,,,,
school,Pragya Jyoti English School,27.7134791,85.29754168181817,Polygon,way/219418707,school,,01-4277720,,private,210.0,,,,,,,,
school,KERIC Academy Secondary School,27.73577688,85.30291833999999,Polygon,way/219421232,school,,01-4389047,,private,300.0,,,,,,,,
school,Pragati Higher Secondary Boarding School,27.73150589230769,85.30374518461538,Polygon,way/219424539,school,,01-4350360,,private,400.0,,,,no,,,,
school,Elysian Fields School,27.721115088888887,85.29531537777778,Polygon,way/219424798,school,,01-4359015,,private,130.0,,,,,,,,
school,Birat Boarding School,27.6836167,85.3353536875,Polygon,way/219425521,school,,01-4782212,,private,225.0,,,,,,,,
school,Pacific Academy (PAC) Secondary Boarding School,27.68335245,85.33359378,Polygon,way/219425530,school,,01-4782414,,private,500.0,,,,,,,,
school,Swapna Vatika Academic Higher Secondary School,27.683755466666668,85.32923576666667,Polygon,way/219428837,school,,01-4782186,,private,325.0,,,,,,,,
school,Gyan Niketan Secondary School (Junior Block),27.68431327058824,85.33402573529412,Polygon,way/219431018,school,,01-4783186,,private,187.0,,,,,,,,
school,British Gurkha Academy School,27.74580993125,85.34034681875,Polygon,way/219523804,school,,,,private,300.0,,,,,,,,
school,Columbus School,27.686441916666663,85.33034468333334,Polygon,way/219543994,school,,01-4780967,,private,135.0,,,,,,,,
school,House of Montessori World,27.68621354,85.3300254,Polygon,way/219544010,school,,01-4781245,,private,45.0,,,,,,,,
school,Innovative English School,27.68383396153846,85.33119095384616,Polygon,way/219544011,school,,"4782422, 4782412",,private,800.0,,,,,,,,
school,Traibidhya Sikshya Sadan,27.681466460000003,85.33327385999999,Polygon,way/219544013,school,,01-4783435,,private,20.0,,,,,,,,
school,Peace Point Secondary Boarding School,27.69699957142857,85.34846235714285,Polygon,way/219612708,school,,4110606,,private,250.0,,,,,,,,
school,Occidental Public School,27.69704082,85.33073652,Polygon,way/219616616,school,school,,Occidental Public School,private,1250.0,,,,,,,,
school,Saurdeep Boarding School,27.7263855,85.29612829999999,Polygon,way/219616903,school,,01-4951000,,private,410.0,,,,,,,,
school,Bhadra Ghale Sikshya Sadan,27.698674963636368,85.33117776363636,Polygon,way/219616912,school,,01420461,,community,150.0,,,,,,,,
school,Supreme International High School,27.717012667857144,85.35107645714287,Polygon,way/219617127,school,,,,private,250.0,,,,,,,,
school,Sayapatri Children Education Academy,27.70214751428572,85.32947132857143,Polygon,way/219617170,school,,016220690,Sayapatri Children Education Academy,private,85.0,,,,,,,,
school,Esteem Learning School,27.71798908,85.35120024,Polygon,way/219617232,school,,,,private,19.0,,,,,,,,
school,Disneyland Pre-School,27.71854742,85.35069618,Polygon,way/219617663,school,,,,private,50.0,,,,,,,,
school,Bright Land Higher Secondary School,27.73066057142857,85.3043509857143,Polygon,way/219617712,school,,01-4315112,,private,350.0,,,,,,,,
school,Riviera International School,27.718331295652177,85.35358219565217,Polygon,way/219617749,school,,,,private,420.0,,,,,,,,
school,Kohinoor School,27.732250790909088,85.30381386363636,Polygon,way/219617768,school,,01-4365332,,private,30.0,,,,,,,,
school,Bright Heaven Boarding School,27.733087877777777,85.30402332222224,Polygon,way/219617902,school,,01-381121,,private,500.0,,,,,,,,
school,Baba Boarding High School,27.72001215,85.34915817,Polygon,way/219618179,school,,,,private,550.0,,,,,,,,
school,Arunodaya Secondary School,27.705834857142857,85.30572838571427,Polygon,way/219618182,school,school,,Arunodaya Secondary School,government,200.0,,,,,,,,
school,Kanya Secondary School,27.7059057,85.306821,Polygon,way/219618184,school,educational,,Kanya Secondary School,government,300.0,50andabove,,,,,,,
school,Kesh Chandra Primary School,27.706924716666663,85.3079777,Polygon,way/219618185,school,school,,Kesh Chandra Primary School,government,55.0,,,,,,,,
school,Next Generation Residential Academy,27.7058861,85.3061955375,Polygon,way/219618186,school,,,,private,550.0,,,,,,,,
school,Stephens International School,27.741037714285717,85.33724111428572,Polygon,way/219618302,school,,,,private,125.0,,,,,,,,
school,Ekta English Boarding School,27.7084106875,85.30671995,Polygon,way/219618307,school,,,,private,200.0,,,,,,,,
school,Kanya Mandir Higher Secondary School,27.709853037142857,85.30877298857142,Polygon,way/219618308,school,,,,government,700.0,,,,,,,,
school,Lumbini Academic Foundation,27.72026436,85.34947695,Polygon,way/219618372,school,,,,private,900.0,,,,,,,,
school,Little Genius English Secondary School,27.721305986666668,85.29168805333333,Polygon,way/219618762,school,,01-6213042,,private,350.0,,,,,,,,
school,Bhakta Vidhyashram Secondary School,27.7088266,85.3070286,Polygon,way/219618844,school,,,,government,150.0,,,,,,,,
school,Shree Shram Rastriya Secondary School,27.7169847625,85.354789525,Polygon,way/219619032,school,,,,government,800.0,,,,,,,,
school,Satya Sai Academy,27.715812816666663,85.35284421666667,Polygon,way/219619221,school,,,,private,250.0,,,,,,,,
school,,27.71629010666667,85.35321105999999,Polygon,way/219619227,school,,,Satya Sai Academy,,,,,,,,,,
school,Open House English Boarding School,27.70790333636364,85.30386260909091,Polygon,way/219620011,school,,,,private,383.0,,,,,,,,
school,Swarnim Sikshya Sadan,27.709992966666665,85.30494463333333,Polygon,way/219620012,school,,,,private,120.0,,,,,,,,
school,Paradigm Public School,27.7289028375,85.31309597500001,Polygon,way/219620580,school,,,,private,300.0,,,,,,,,
school,Pushpa Kunja High School,27.73251974444445,85.31212065555556,Polygon,way/219620581,school,,,,private,364.0,,,,,,,,
school,SEB School,27.72869175,85.31281198333333,Polygon,way/219620582,school,,,,private,450.0,,,,,,,,
school,Scholar's Home Academy,27.73275115555556,85.31413442777779,Polygon,way/219620583,school,,,,private,600.0,,,,,,,,
school,Shree Ganesh Himal Secondary School,27.73354474285714,85.31314768571428,Polygon,way/219620584,school,,,,private,350.0,,,,,,,,
school,Small Heaven Boarding School,27.7108427625,85.30545515625,Polygon,way/219621365,school,,,,private,400.0,,,,,,,,
school,Small Heaven Boarding School,27.710255082608697,85.30613781304348,Polygon,way/219621366,school,,,Small Heaven Boarding School,,,,,,,,,,
school,Whitefield English Boarding School,27.71045176,85.30610636,Polygon,way/219621367,school,,,,private,320.0,,,,,,,,
school,Whitefield English Boarding School,27.7097469,85.30611440999999,Polygon,way/219621368,school,,,Whitefield English Boarding School,,,,,,,,,,
school,Saraswati Boarding School,27.712367142857143,85.30836753571428,Polygon,way/219623005,school,,,,private,750.0,,,,,,,,
school,Ananta Mangal Sadan,27.73361402,85.30344188000001,Polygon,way/219624683,school,,01-4384717,,private,100.0,,,,,,,,
school,Nepal Yubak Secondary School,27.71478749473684,85.30797380526316,Polygon,way/219624704,school,,,,government,500.0,,,,,,,,
school,Awareness International Academy (AIA),27.680539891666665,85.332542625,Polygon,way/219625631,school,,01-4782629,,private,550.0,,,,,,,,
school,Shree Sanjaya Sai Vidhya Mandir,27.68543668,85.32820262,Polygon,way/219625649,school,,01-4780528,,community,250.0,,,,,,,,
school,Morning Glory High School,27.696653975,85.3095556625,Polygon,way/219625848,school,,,,private,300.0,,,,,,,,
school,Shree Panchakanya Lower Secondary School,27.73137752222222,85.33682621111112,Polygon,way/219625933,school,,,,private,375.0,,,,,,,,
school,Basbari Higher Secondary School / Chiran Milan Bishwashanti Campus,27.741091641666667,85.34502764166666,Polygon,way/219627300,school,,,,government,650.0,,,,,,,,
school,Euro Kids Pre School Specialist,27.739741344444447,85.34364882222222,Polygon,way/219627301,school,,,,private,100.0,,,,,,,,
school,Guheshwari Boarding High School,27.7413781125,85.34420439375,Polygon,way/219627303,school,,,,private,230.0,,,,,,,,
school,Oliver Public School,27.7378281625,85.344919725,Polygon,way/219627306,school,,,,private,800.0,,,,,,,,
school,National Academy,27.68674734736842,85.32759607894737,Polygon,way/219627674,school,,01-9781091,,private,350.0,,,,,,,,
school,Mini Montessori,27.69095182857143,85.33216381428572,Polygon,way/219627750,school,,,,private,14.0,,,,,,,,
school,Araniko Secondary Boarding School,27.697313271428573,85.30959987142857,Polygon,way/219628766,school,,,,private,,,,,,,,,
school,Araniko Secondary Boarding School,27.6970937,85.30944403999999,Polygon,way/219628767,school,,,Araniko Secondary Boarding School,,,,,,,,,,
school,Deep High School,27.696420054545456,85.3101403909091,Polygon,way/219628768,school,,,,private,300.0,,,,,,,,
school,नोबेल एकेडेमी,27.68990157647059,85.33186351176471,Polygon,way/219628976,school,,4781401,,private,1150.0,,,,,,,,
school,Dewy Dawn High School,27.698192266666663,85.31031894444443,Polygon,way/219629528,school,,,,private,200.0,,,,,,,,
school,Gyan Jyoti Academy,27.74340648181818,85.34053427272728,Polygon,way/219630636,school,,,,private,450.0,,,,yes,,,,
school,Modern Educare Montessori Based School,27.74621048333333,85.34131308333333,Polygon,way/219630637,school,,,,private,100.0,,,,,,,,
school,Azad Lower Secondary School,27.697755828571427,85.30849452857142,Polygon,way/219631565,school,school,,Ajad Lower Secondary School,government,175.0,,,,,,,,
school,Kumari English Boarding School,27.700924633333337,85.30481464444443,Polygon,way/219633721,school,school,,Kumari English Boarding School,private,500.0,,,,,,,,
school,Neric Academy,27.68063238333333,85.33328006666666,Polygon,way/219634557,school,,01-4781825,,private,350.0,,,,,,,,
school,The Chandbagh School Pipalbot,27.74139517142857,85.34369517142856,Polygon,way/219636294,school,,,,private,370.0,,,,,,,,
school,Pine Ridge Academy,27.7268965,85.32621747499999,Polygon,way/219636396,school,,,,private,80.0,,,,,,,,
school,Bhanubhakta Memorial Higher Secondary School,27.72688475,85.32485167857143,Polygon,way/219640825,school,,,,community,2200.0,,,,,,,,
school,Chandra Tara School,27.723733822222226,85.32397815555555,Polygon,way/219640827,school,,,,private,80.0,,,,,,,,
school,Sunrise Boarding School,27.7261303375,85.325169525,Polygon,way/219640846,school,,,,private,300.0,,,,,,,,
school,Marie Gold Boarding School,27.693550833333333,85.33271493333334,Polygon,way/219640915,school,,4490354,,private,135.0,,,,,,,,
school,Chelsea International Academy,27.69443318,85.33547952,Polygon,way/219640919,school,school,,Chelsea International Academy,private,1200.0,,,,,,,,
school,Kathmandu Xavier Public School,27.694010975,85.335773325,Polygon,way/219644146,school,,014469987,,private,300.0,,,,yes,,,,
school,Ratna Rajya Higher Secondary School,27.69584354,85.33730716,Polygon,way/219646092,school,,4471757,,government,1650.0,,,,yes,,,,
school,Aradhana Academy,27.731127785714285,85.31047365714286,Polygon,way/219775936,school,,,,private,200.0,,,,,,,,
school,Basanta Ritu English Boarding School,27.7268189125,85.31666361250001,Polygon,way/219775937,school,,,,private,350.0,,,,,,,,
school,Gandaki Public Boarding School,27.72538233333333,85.30801708888889,Polygon,way/219775941,school,,,,private,350.0,,,,,,,,
school,Marshyangdi Boarding High School,27.72626866363636,85.3078810090909,Polygon,way/219775942,school,,,,private,200.0,,,,,,,,
school,Mother International Academy,27.7258651,85.31240234,Polygon,way/219775943,school,,,,private,125.0,,,,,,,,
school,New Himalayan Bidya Mandir Higher Secondary School,27.723882855555555,85.31474207777778,Polygon,way/219775948,school,,,,private,800.0,,,,,,,,
school,The Imperial Academy,27.72976374,85.31074240000001,Polygon,way/219775949,school,,,,private,300.0,,,,,,,,
school,Vijaya Secondary Boarding School,27.7274248875,85.3107985125,Polygon,way/219775950,school,,,,private,60.0,,,,,,,,
school,White Haven Academy,27.733489711111112,85.31064284444444,Polygon,way/219775951,school,,,,private,350.0,,,,,,,,
school,Parijat Vidya Punja,27.69500141,85.33566499999999,Polygon,way/219896798,school,,4474207,,private,150.0,,,,,,,,
school,Childrens Eternal Academy,27.721134740000004,85.3088106,Polygon,way/219900958,school,,,,private,500.0,,,,,,,,
school,Eternal Light Public Higher Secondary School,27.721725669230768,85.30897747692308,Polygon,way/219900964,school,,,,private,750.0,,,,,,,,
school,National Star High School,27.72030341111111,85.31042158888889,Polygon,way/219900965,school,,,,private,70.0,,,,,,,,
school,Precious National Academy Higher Secondary School,27.723869216666667,85.30847563333333,Polygon,way/219900966,school,,,,private,445.0,,,,,,,,
school,Siddhi Ganesh Higher Secondary School,27.718349071428573,85.31022130714287,Polygon,way/219900967,school,,,,community,650.0,,,,limited,,,,
school,World Angel Academy,27.7097334625,85.301525225,Polygon,way/220108551,school,,01-4274792,,private,30.0,,,,,,,,
school,Buddha Jyoti Academy,27.709699875,85.30112086666666,Polygon,way/220108682,school,,,,private,500.0,,,,,,,,
school,Little Buddhas Academy,27.7118946,85.299341,Polygon,way/220109996,school,,01-4284237,,private,350.0,,,,,,,,
school,Bibhuti International School,27.71057118,85.30012832,Polygon,way/220110829,school,,01-4670047,,private,220.0,,,,,,,,
school,New Arunodaya English Higher Secondary School,27.71089299,85.29901977,Polygon,way/220111963,school,,01-4275993,,private,800.0,,,,,,,,
school,A&A Academy,27.67512297142857,85.34062284285713,Polygon,way/220189972,school,,9808442349,,private,70.0,,,,,,,,
school,Hebron Public School,27.6732714,85.34358645,Polygon,way/220190725,school,,01-4600869,,private,400.0,,,,,,,,
school,Great Wall International School,27.682853066666667,85.33812245,Polygon,way/220198407,school,,,,private,250.0,,,,,,,,
school,Shubham Pathshala,27.68521346,85.33551988,Polygon,way/220201768,school,,,,private,50.0,,,,,,,,
school,Kathmandu Vidya Mandir,27.7227505125,85.3525511625,Polygon,way/220211878,school,,,,private,350.0,,,,,,,,
school,Tara Sadan English School,27.72189965555556,85.35233904444445,Polygon,way/220211881,school,,,,private,350.0,,,,,,,,
school,Arunima Sishu Sadan,27.72529369375,85.35737323125,Polygon,way/220212852,school,,,,private,390.0,,,,,,,,
school,Shri Janakalyan Higher Secondary School,27.7258277,85.35794581666666,Polygon,way/220212854,school,,,,government,1500.0,,,,,,,,
school,Progressive English Secondary School,27.723262591666668,85.35542115,Polygon,way/220213327,school,,,,private,500.0,,,,,,,,
school,Progressive English Secondary School,27.72337027142857,85.35549904285713,Polygon,way/220213331,school,yes,,private,,,,,,,mahankal oralo,,,
school,three star school,27.72590926666667,85.36314274,Polygon,way/220214960,school,,,private,private,375.0,,,,,ramhiti,municipality,6.0,
school,Three Star English School,27.72634116,85.36295351999999,Polygon,way/220215433,school,,,,private,50.0,,,,,,,,
school,Shree Nawa Jagriti Secondary School,27.728257913333334,85.36328710666666,Polygon,way/220215977,school,,,,government,800.0,,,,,,,,
school,Adarsha Yog-Hari Higher Secondary School,27.71849575,85.3149862125,Polygon,way/220227884,school,,,,community,355.0,,,,,,,,
school,Vidyodaya English School,27.708788483333333,85.29896718333333,Polygon,way/220294712,school,,01-275955,,private,300.0,,,,,,,,
school,Divya Gyan English Boarding High School,27.70689735,85.30083016,Polygon,way/220314701,school,,01-4276061,,private,650.0,,,,,,,,
school,Dallu Awasiya Vidyalaya,27.70884739375,85.3009781,Polygon,way/220316757,school,,,,private,590.0,,,,,,,,
school,Holy Vision International Higher Secondary School,27.701736954545456,85.29423244545454,Polygon,way/220317559,school,,,,private,980.0,,,,,,,,
school,Kathmandu Valley School and College,27.70329144444445,85.29497147777778,Polygon,way/220317955,school,,,,private,413.0,,,,yes,,,,
school,Greyfort International School,27.69478744,85.3445088,Polygon,way/220319539,school,school,4462505,Greyfort International School,private,,,,,,,,,
school,Reliance Residential Higher Secondary School,27.69710816153846,85.34334283846154,Polygon,way/220321372,school,,4473237,,private,300.0,,,,,,,,
school,Blooming Buds International School,27.70062943636364,85.34126305454545,Polygon,way/220323725,school,,4483223,,private,300.0,,,,,,,,
school,Loyala Higher Secondary School,27.70025771111111,85.34250112222222,Polygon,way/220325114,school,,447116,,private,340.0,,,,,,,,
school,Kathmandu Pragya Kunja School,27.6934866125,85.3404068375,Polygon,way/220325633,school,,0097714488438,,private,603.0,,,,,Sangam chowk,Kathmandu,,https://pragyakunja.edu.np/
school,Pragya Sadan Primary School,27.7232816625,85.31307166250001,Polygon,way/220414608,school,,,,private,150.0,,,,,,,,
school,High Himalayan Academy,27.69292912,85.34005486,Polygon,way/220424182,school,school,,High Himalayan Academy,private,55.0,,,,,,,,
school,Om Education Academy,27.71093332,85.30761853999999,Polygon,way/220553630,school,school,,Om Education Academy,private,350.0,,,,,,,,
school,Bal Bikash Lower Secondary School,27.71185502,85.30603651999999,Polygon,way/220554777,school,school,,Bal Bikash Lower Secondary School,government,200.0,,,,,,,,
school,Ursa Major Children's Academy,27.716620588888887,85.30448766666667,Polygon,way/220555380,school,school,,Ursa Major Children's Academy,private,250.0,,,,,,,,
school,Blue Horizon Academy,27.72330724,85.32594386,Polygon,way/220577239,school,,01-4432797,,private,65.0,,,,,,,,
school,Shree Dhumrabarah Secondary School,27.725242822222224,85.34291117777778,Polygon,way/220577248,school,,,,government,650.0,,,,yes,,,,
school,The Insight Vision Higher Secondary School,27.72679503,85.34183514,Polygon,way/220577250,school,,,,private,600.0,,,,,,,,
school,Universal Higher Secondary School,27.7227731,85.34028820769231,Polygon,way/220577254,school,,,,private,331.0,,,,,,,,
school,The Insight Vision HS School,27.72598822,85.34326072,Polygon,way/220577286,school,,,,,,,,,no,,,,
school,Bal Batika,27.69281086,85.36742626,Polygon,way/220702738,school,,,,private,51.0,,,,,,,,
school,Global Public School,27.6925177125,85.3676839,Polygon,way/220702741,school,,,,private,600.0,,,,,,,,
school,Mangal English School,27.69091295714286,85.36172535714286,Polygon,way/220702744,school,,,,private,300.0,,,,,,,,
school,Pritima English Secondary School,27.6921513625,85.3639772875,Polygon,way/220702746,school,school,,Priitima English Secondary School,,,,,,,,,,
school,Nepal Everest Montessori School,27.69890858,85.34794452,Polygon,way/220704533,school,,,,private,88.0,,,,,,,,
school,Pratima English School,27.692245860000003,85.36400155999999,Polygon,way/220984941,school,,,,private,400.0,,,,,,,,
school,Kankeshwori Secondary School,27.707132828571428,85.30334667142857,Polygon,way/220990736,school,school,,Kankeshwori Secondary School,government,400.0,,,,,,,,
school,New Zenith English Model School,27.71062103928572,85.30371195714285,Polygon,way/220993531,school,,,,private,750.0,,,,,,,,
school,Nepal Rastriya Lower Secondary School,27.71165252,85.30406519,Polygon,way/220995240,school,school,,Nepal Rastriya Lower Secondary School,government,250.0,,,,,,,,
school,Surena English Boarding School,27.712870644444443,85.30312071111112,Polygon,way/220996442,school,,,,private,170.0,,,,,,,,
school,Whitefield English Boarding School,27.71578014736842,85.30304618947369,Polygon,way/221016688,school,,,,private,1400.0,,,,,,,,
school,Shobha Bhagwati English Boarding School,27.7155962625,85.302485625,Polygon,way/221027479,school,,,,private,550.0,,,,,,,,
school,Siddhartha Public Academy,27.704787670588235,85.31781792941176,Polygon,way/221050572,school,,,,private,400.0,,,,,,,,
school,Adwitiya Boarding School,27.7351628125,85.298578925,Polygon,way/221179243,school,,01-4362090,,private,325.0,,,,,,,,
school,Asha Vidhyashram,27.73604556,85.29635988,Polygon,way/221179244,school,,9841773795,,private,115.0,,,,,,,,
school,Creative Model Academy Boarding High School,27.71926272,85.32442416,Polygon,way/221295615,school,,,,private,200.0,,,,,,,,
school,Pushpa Bal Academy,27.718541216666665,85.32298528333332,Polygon,way/221295616,school,,,,private,150.0,,,,,,,,
school,,27.71955402,85.32428616,Polygon,way/221295626,school,,,Creative Model Academy BH School,,,,,,,,,,
school,Lily Flower Boarding School,27.720593057142857,85.35070169999999,Polygon,way/221326057,school,,,,private,35.0,,,,,,,,
school,Hamro Sunshine School,27.733447666666667,85.36799498888888,Polygon,way/221328637,school,,,,private,160.0,,,,,,,,
school,Kailash Bodhi School,27.73126824285714,85.36496279999999,Polygon,way/221330736,school,,,,private,940.0,,,,,,,,
school,Gangchen Samling School,27.7296876,85.370103,Polygon,way/221331607,school,,,,private,263.0,,,,,,,,
school,Mini Land School,27.69768947777778,85.30545147777778,Polygon,way/221337501,school,,,,private,490.0,,,,,,,,
school,Shri Mahendra Saraswati Sewa Lower Secondary School,27.69409441666667,85.30383671666667,Polygon,way/221350571,school,,,,government,120.0,,,,,,,,
school,Laxmi Sikshya Sadan Higher Secondary School,27.695428993333334,85.30398613333334,Polygon,way/221351928,school,,,,private,250.0,,,,,,,,
school,Mansarovar Academy,27.72683654,85.36408639999999,Polygon,way/221353507,school,,,,private,340.0,,,,,,,,
school,Shree Mangal Dvip Boarding School,27.72588430967742,85.36462141290322,Polygon,way/221354402,school,,,,private,546.0,,,,,,,,
school,Subash Smrity School,27.671248577777774,85.34618421111111,Polygon,way/221354601,school,,,,private,150.0,,,,,,,,
school,New Tulips Secondary School,27.672494146153845,85.34535646153846,Polygon,way/221354602,school,,,,private,450.0,,,,,,,,
school,Sambotta High School,27.72851958,85.36838778,Polygon,way/221355227,school,,,,private,300.0,,,,,,,,
school,Srongtsen Bhrikuti Boarding High School,27.728235145454548,85.36672726363636,Polygon,way/221355228,school,,,private,,,,,,,Tinchuli,municipality,6.0,
school,Genesis Academy,27.726014433333333,85.36911548333335,Polygon,way/221356302,school,,,,private,230.0,,,,,,,,
school,Tashi Orphan School,27.72444437142857,85.36644951428572,Polygon,way/221356504,school,,,,private,106.0,,,,,,,,
school,Samata Academy,27.722725025,85.36806119166668,Polygon,way/221356893,school,,,,private,3300.0,,,,,,,,
school,Lord Buddha Secondary School,27.72206683076923,85.36789825384615,Polygon,way/221357309,school,,,,private,400.0,,,,,,,,
school,Wits Academy,27.72637653636364,85.37197194545455,Polygon,way/221359778,school,,,,private,600.0,,,,,,,,
school,Manjushree Community School,27.72420779444444,85.37062707222223,Polygon,way/221362688,school,,,,community,59.0,,,,,,,,
school,Vinayak English Higher Secondary School,27.71957076,85.34768534,Polygon,way/221376644,school,,,,private,485.0,,,,,,,,
school,,27.720106428571427,85.34768465714286,Polygon,way/221376649,school,,,Vinayak English Higher Secondary School,,,,,,,,,,
school,Kathmandu Unified City School,27.716422242857146,85.34543235,Polygon,way/221377997,school,,,,private,125.0,,,,,,,,
school,Kotdevi Public Secondary School,27.671648427272725,85.34898213636365,Polygon,way/221419704,school,,,,private,500.0,,,,,,,,
school,Laliguras Secondary School,27.66863788333333,85.34988985833333,Polygon,way/221419705,school,,,,private,241.0,,,,,,,,
school,Nepal Central Higher Secondary School,27.671937033333336,85.3504356625,Polygon,way/221419926,school,,,,private,425.0,,,,,,,,
school,Mount Seb English School,27.67226463076923,85.35128615384616,Polygon,way/221420265,school,,,,private,450.0,,,,,,,,
school,Seraphims' Public School,27.696702485,85.30017318,Polygon,way/221481055,school,,,,private,250.0,,,,,,,,
school,Jagriti Academy school,27.6731707,85.3502866,Polygon,way/221558875,school,,,,private,375.0,,,,,,,,
school,Oriental Academy school,27.67293803333333,85.35266344166666,Polygon,way/221558876,school,,,,private,250.0,,,,,,,,
school,Camelliya English Boarding School,27.6953733,85.29973386666667,Polygon,way/221605638,school,,,,private,300.0,,,,,,,,
school,Paramount English Boarding School,27.69169806,85.29568526,Polygon,way/221642736,school,,,,private,300.0,,,,,,,,
school,Ikeda International School,27.693514313636364,85.29021037272727,Polygon,way/221685879,school,,,,private,230.0,,,,,,,,
school,Mitra High School,27.69460697333333,85.29877875333334,Polygon,way/221685880,school,,,,private,270.0,,,,,,,,
school,Dreamland Public School,27.70484524,85.32182642000001,Polygon,way/221694251,school,,,,private,320.0,,,,,,,,
school,Madrasha Islamiya Secondary School,27.70675810909091,85.31703603636363,Polygon,way/221694254,school,,,,private,300.0,,,,,,,,
school,National Star School,27.71240372727273,85.3090601,Polygon,way/221699896,school,,,,private,70.0,,,,,,,,
school,Prabhat Secondary School,27.7096695125,85.30948599999999,Polygon,way/221699897,school,,,,government,300.0,,,,,,,,
school,Shanti Shikshya Mandir,27.71135192,85.30990011,Polygon,way/221699898,school,,,,government,250.0,,,,,,,,
school,,27.71128706,85.31002662,Polygon,way/221699902,school,,,Shanti Shikshya Mandir,,,,,,,shanti sikshya margha,,,
school,Kamyak School,27.7061472,85.32015968,Polygon,way/221752137,school,,,,private,250.0,,,,,,,,
school,Jana Kalyan Primary School,27.71348648,85.30667868,Polygon,way/221765596,school,school,,Jana Kalyan Primary School,private,40.0,,,,,,,,
school,Maya Lok English School,27.71299022857143,85.3063361,Polygon,way/221765600,school,,,,private,50.0,,,,,,,,
school,Neelgiri School,27.71753015,85.30770687500001,Polygon,way/221765601,school,,,,private,240.0,,,,,,,,
school,Pragya Higher Secondary School,27.717156963636363,85.31148801818182,Polygon,way/221769819,school,,,,private,60.0,,,,,,,,
school,Albert Einstein Academy,27.71080217777778,85.31333448888888,Polygon,way/221797111,school,,,,private,300.0,,,,,,,,
school,Annapurna Higher Secondary School,27.709593984615385,85.31341314615385,Polygon,way/221797112,school,,,,private,1400.0,,,,,,,,
school,Lokhit Lower Secondary School,27.715911622222222,85.31256698888889,Polygon,way/221797115,school,,,,government,200.0,,,,,,,,
school,,27.71055138,85.31344143999999,Polygon,way/221797124,school,school,,Albert Einstein Academy,,,,,,,byathit marg,,27.0,
school,Bal Ujjwol Primary School,27.71045234,85.31117046,Polygon,way/221801515,school,school,,Bal Ujjwol Primary School,government,40.0,,,,,,,,
school,Tyauda Secondary School,27.709963261538466,85.31124246153846,Polygon,way/221801516,school,,,,government,370.0,,,,,,,,
school,Bodhisatta Primary School,27.70567422857143,85.31130071428572,Polygon,way/221806624,school,school,,Bodhisatta Primary School,private,65.0,,,,,,,,
school,Himalaya Secondary School,27.703585485714285,85.31184317142856,Polygon,way/221820525,school,,,,government,275.0,,,,,,,,
school,City English School,27.68148848,85.34720104,Polygon,way/221932004,school,,,,private,375.0,,,,,,,,
school,Sai Trinity School,27.681564200000004,85.34744948,Polygon,way/221933343,school,,,,private,110.0,,,,,Shiddha Marga,,,
school,Aakriti English Secondary Boarding School,27.682808716666667,85.34761346666666,Polygon,way/221938657,school,,,,private,80.0,,,,,Subidha Marga,Kathmandu,,
school,Kathmandu Barsha School,27.6850695,85.34483682307692,Polygon,way/221951335,school,,,,private,520.0,,,,,,,,
school,Whitehouse school and College,27.68415297428572,85.34704044571428,Polygon,way/221951617,school,,015199456,Mr. Yuvraj Sharma,,,,,Su-Fr 07:00-17:00,,WhiteHouse street,,,https://www.whitehouse.edu.np/
school,Triton internation school,27.68413422,85.3444063,Polygon,way/221955575,school,,,,private,206.0,,,,,,,,
school,Kamal English Boarding Higher Secondary School,27.685976453846155,85.29779514615385,Polygon,way/222136573,school,,,,private,475.0,,,,,,,,
school,Gurukul National School,27.70419294285714,85.34782578571428,Polygon,way/222180844,school,,,,private,150.0,,,,,,,,
school,Keta Keti Spowc Free School,27.70657643636364,85.35037902727272,Polygon,way/222180845,school,,,,community,200.0,,,,,,,,
school,Midland English School,27.702485433333333,85.34774753888888,Polygon,way/222180849,school,,,,private,250.0,,,,,,,,
school,New Shrine Boarding School,27.70470303,85.34872536,Polygon,way/222180854,school,,,,private,365.0,,,,,,,,
school,Shri Bal Batika Secondary School,27.70488553,85.35062539,Polygon,way/222180857,school,,,,community,300.0,,,,,,,,
school,Shri Sharada Higher Secondary School,27.7016628875,85.35008680625,Polygon,way/222180858,school,,,,government,585.0,,,,yes,,,,
school,Shri Sharada Lower Secondary School,27.7050774875,85.3517541875,Polygon,way/222180859,school,,,,government,187.0,,,,,,,,
school,Wilson Academy,27.703323676923077,85.28424773076924,Polygon,way/222255329,school,,,,private,200.0,,,,,,,,
school,Harvard International School,27.699682142857142,85.28607530714285,Polygon,way/222255848,school,,,,private,375.0,,,,,,,,
school,Gaurishanker Higher Secondary School,27.70224867,85.28671573,Polygon,way/222256678,school,,,,private,300.0,,,,,,,,
school,Tiny Toys Kindergarten,27.70267218,85.2871954,Polygon,way/222258194,school,,,,private,40.0,,,,,,,,
school,Swayambhu English Boarding School,27.7159604,85.29393786666667,Polygon,way/222258498,school,,,,private,275.0,,,,,,,,
school,Capital Hill Academy,27.69925608125,85.28839421875,Polygon,way/222267299,school,,,,private,21.0,,,,,,,,
school,Zenith English Secondary School,27.69934735714286,85.28722357142858,Polygon,way/222269822,school,,,,private,324.0,,,,,,,,
school,Sirius Higher Secondary School,27.700445483333336,85.28350175,Polygon,way/222271306,school,,,,private,350.0,,,,,,,,
school,Shree Buddhanagar Lower Secondary School,27.68875344,85.32854926,Polygon,way/222467452,school,,9841834523,,government,145.0,,,,,,,,
school,Edify International School,27.69321063,85.284957275,Polygon,way/222495752,school,,,,,,,,,,,,,
school,Janapath Secondary School,27.693373654545454,85.2838223909091,Polygon,way/222495754,school,,,,government,410.0,,,,,,,,
school,Pinnacle Scholars' Academy,27.694129173913044,85.28334433043479,Polygon,way/222495756,school,,,,private,700.0,,,,,,,,
school,East-West English Boarding School,27.687107857142852,85.29838752857142,Polygon,way/222716500,school,,,,private,260.0,,,,,,,,
school,Pragyan School,27.6882226,85.29882762,Polygon,way/222716504,school,,,,private,100.0,,,,,,,,
school,Blue Wren International Boarding School,27.69423188,85.28122852,Polygon,way/222716691,school,,,,private,339.0,,,,yes,,,,
school,Cambridge International Boarding Higher Secondary School,27.693579683333336,85.28040695,Polygon,way/222716692,school,,,,private,300.0,,,,,,,,
school,Kathmandu New Castle School,27.7460075,85.3357229,Polygon,way/222753145,school,,,,private,300.0,,,,,,,,
school,Summer Hill School,27.698340055555555,85.34741505555556,Polygon,way/222754220,school,,,,private,100.0,,,,,,,,
school,Landmark Education Foundation,27.690446783333336,85.3508013888889,Polygon,way/222755373,school,,,,private,200.0,,,,,,,,
school,Koteshwor Saraswoti School,27.68042935555556,85.34114448888889,Polygon,way/222756530,school,,,,government,2533.0,,,,,,,,
school,Ganga Secondary School,27.696984,85.27926932,Polygon,way/222761771,school,,,,private,650.0,,,,,,,,
school,Mandala International School,27.694813457142857,85.27845544285715,Polygon,way/222761775,school,,,,private,300.0,,,,,,,,
school,White Pearls Academy,27.69612808333333,85.27745881666667,Polygon,way/222761777,school,,,,private,150.0,,,,,,,,
school,Diana Secondary School,27.679679111111117,85.34228324444445,Polygon,way/222764576,school,,,,private,300.0,,,,,,,,
school,Grammar Public Higher Secondary School,27.67897923809524,85.34144570952381,Polygon,way/222764866,school,,+977 01 4602735; +977 01 4600367; +977 01 4601213,,private,400.0,,,,,,,,https://grammarschool.edu.np/
school,Manakamana English Boarding School,27.67707508333333,85.33861078333332,Polygon,way/222765859,school,,,,private,600.0,,,,,,,,
school,Creation International Academy,27.68015256,85.33783313,Polygon,way/222766471,school,,,,private,300.0,,,,,,,,
school,Satya Sai School,27.703973891666667,85.34691185833333,Polygon,way/222839525,school,,,,private,290.0,,,,,,,,
school,Care English Boarding School,27.70538951904762,85.3459158,Polygon,way/222840384,school,,,,private,400.0,,,,,,,,
school,Shri Mangaladevi Secondary School,27.7076738,85.34297074,Polygon,way/222842146,school,,,,government,300.0,,,,,,,,
school,Kalanki English Medium School,27.691548620000003,85.28613909999999,Polygon,way/222842639,school,,,,private,142.0,,,,,,,,
school,Intensive International Academy,27.69668348333333,85.295272325,Polygon,way/222843739,school,,,,private,340.0,,,,,,,,
school,Sai Nilayam Secondary Boarding School,27.69690332857143,85.29605118571429,Polygon,way/222843740,school,,,,private,200.0,,,,,,,,
school,Leads Academy,27.686527305882358,85.3636379117647,Polygon,way/222852322,school,,,,private,325.0,,,,,,,,
school,Highland English School,27.69575632352941,85.36545286470587,Polygon,way/222854154,school,,,,private,260.0,,,,,,,,
school,Special School for Disabled and Rehabilitation center,27.69483351111111,85.36262204444444,Polygon,way/222854155,school,,,,private,30.0,,,,,,,,
school,Gyankanj School,27.692853066666665,85.29066809999999,Polygon,way/222872125,school,,,,,,,,,,,,,
school,Telic International Model English School (Times),27.68995788,85.29095258,Polygon,way/222872130,school,,,,private,450.0,,,,,,,,
school,United Scholars' Academy,27.68910977272727,85.28711586363636,Polygon,way/222872132,school,,,,private,350.0,,,,,,,,
school,Richmond Academy,27.69060405238095,85.28912956190477,Polygon,way/222872151,school,,,,private,140.0,,,,,,,,
school,Kathmandu Bonsai Academy,27.68764654,85.29312874,Polygon,way/222874298,school,,,,private,200.0,,,,,,,,
school,Asha Mandir English High School,27.69315961818182,85.34610630909091,Polygon,way/223091832,school,,,,private,200.0,,,,,,,,
school,,27.688297113333338,85.34541808,Polygon,way/223092762,school,,,Glacier International HSS,,,,,,,,,,
school,Siddheshwor Secondary School,27.686931554545456,85.34397531818182,Polygon,way/223093013,school,,4622730,,government,350.0,,,,,,,,
school,Shri Nepal Bedh Vidhyashram,27.70959186923077,85.34493252307692,Polygon,way/223093275,school,,,,community,140.0,,,,,,,,
school,Mt. Sinai English Boarding School,27.688056741666667,85.34072400000001,Polygon,way/223093414,school,,4462966,,private,110.0,,,,,,,,
school,Shatabdi Higher Secondary School,27.692024618181826,85.34078401818182,Polygon,way/223093896,school,,4115754,,private,300.0,,,,,,,,
school,Pioneer Scholars' Academy,27.69639723333333,85.34149967777778,Polygon,way/223100712,school,,4492436,,private,342.0,,,,,,,,
school,Indradhanush Higher Secondary School,27.69603959230769,85.34397946923076,Polygon,way/223101414,school,,4476499,,private,400.0,,,,,,,,
school,Babylon National School,27.69425596,85.34698002,Polygon,way/223107335,school,,,,private,687.0,,,,,,,,
school,Aruni Secondary English Boarding School,27.73730108,85.3064861,Polygon,way/223132669,school,,,,private,400.0,,,,no,,,,
school,Siddhartha Vanasthali Institute,27.725813792857146,85.2979679,Polygon,way/223132671,school,,,,community,2200.0,,,,,,,,
school,Trilok Children's Academy,27.738253577777776,85.30710276666667,Polygon,way/223132672,school,,,,private,500.0,,,,,,,,
school,Pascal International Academy,27.72648418,85.31336628,Polygon,way/223231636,school,,,,private,115.0,,,,,,,,
school,Akshamala Vidya Sadan,27.70474608,85.33955392,Polygon,way/223299779,school,,,,private,153.0,,,,,,,,
school,Bibhuti Pragya Niketan,27.728455430000004,85.35477642000001,Polygon,way/223300840,school,,,,private,400.0,,,,,,,,
school,Sewa Sadan School,27.703091195000003,85.342202625,Polygon,way/223301200,school,,,,private,330.0,,,,,,,,
school,Stepping Stone Pre-School,27.703450276923075,85.34240962307693,Polygon,way/223301201,school,,,,private,60.0,,,,,,,,
school,Kamal Netra Chuna Muna English Boarding School,27.697825700000003,85.34401051428571,Polygon,way/223364712,school,school,4490647,Kamal Netra Chuna Muna Ebs,private,379.0,,,,,,,,
school,Bluebell English Boarding School,27.694252223076923,85.3458878846154,Polygon,way/223365207,school,,,,private,207.0,,,,,,,,
school,National College NIST Higher Education Complex,27.71788857142857,85.3049925,Polygon,way/223400799,school,,01-4360096,,private,400.0,,,,,,,,
school,The Acme Academy High School,27.693812336363635,85.34470164545455,Polygon,way/223489571,school,,,,private,250.0,,,,,,,,
school,Shatabdi Secondary Boarding School,27.69404685294117,85.3456167117647,Polygon,way/223489970,school,,,,private,185.0,,,,,,,,
school,New Drighayu secondary boarding school,27.689485,85.34698698,Polygon,way/223491275,school,,,,private,225.0,,,,,,,,
school,Ambience International School,27.69899531,85.33864242,Polygon,way/223500634,school,,,,private,200.0,,,,,,,,
school,Green Valley English Boarding School,27.7074819,85.30496659999999,Polygon,way/223683247,school,,,,private,140.0,,,,,,,,
school,Krishna Mandir Primary School,27.708763957142857,85.30863392857142,Polygon,way/223683251,school,school,,Krishna Mandir Primary School,government,110.0,,,,,,,,
school,Bernhardt MTI School,27.70062368125,85.29618431875,Polygon,way/223684777,school,,,,private,250.0,,,,,,,,
school,Balpith Primary School,27.699143966666668,85.35163481666666,Polygon,way/224086347,school,,,,government,56.0,,,,,,,,
school,Arun Dip Academy,27.69024968,85.33483026,Polygon,way/224087343,school,,,,private,300.0,,,,,,,,
school,Ambition Academy,27.702666425,85.33845284166667,Polygon,way/224088279,school,,,,private,375.0,,,,,,,,
school,Annapurna English Secondary School,27.689875253333334,85.35157246666667,Polygon,way/224089122,school,,,,private,331.0,,,,,,,,
school,Prasphutan international Academy,27.6994592125,85.35160094375,Polygon,way/224089644,school,,,,private,320.0,,,,,,,,
school,Abhishekh Gyan Mandir,27.69784464,85.35086215,Polygon,way/224091007,school,,,,private,300.0,,,,,,,,
school,Mount Olives High School,27.69869485,85.35083413333332,Polygon,way/224091746,school,,+977 01 4473913,,private,350.0,,,,,Panchakumari Marg,Kathmandu,,
school,N.K. Singh Memorial English Prepartory School,27.689030304347828,85.34120117391303,Polygon,way/224094242,school,,,,private,950.0,,,,,,,,
school,Manang Children Paradise School,27.68535791,85.35697057,Polygon,way/224192386,school,,,,private,270.0,,,,,,,,
school,Saint Paul International School,27.692824355555555,85.33767442222222,Polygon,way/224441079,school,,,,private,300.0,,,,,,,,
school,Rudramati Primary School,27.69824628,85.33138096,Polygon,way/224441409,school,school,,Rudramati Pra Vi,government,85.0,,,,,,,,
school,Gyan Bikash Lower Secondary School,27.71009468,85.33321988,Polygon,way/224441455,school,yes,,Gyan Bikash Ni Ma Vi,government,180.0,,,,,,,,
school,Gitamata Higher Secondary School,27.71366532,85.29978672,Polygon,way/224469076,school,school,,Gitamata Higher Secondary School,government,850.0,,,,,,,,
school,Bright Field Education Academy,27.71761753333333,85.30212544444446,Polygon,way/224864559,school,,,,private,250.0,,,,,,,,
school,Rashmi Secondary School,27.71725687142857,85.2940118,Polygon,way/224867661,school,,,,private,250.0,,,,,,,,
school,Shankari School,27.707347655555555,85.28807124444444,Polygon,way/224949192,school,,,,private,110.0,,,,,,,,
school,Jana Sudhar Lower Secondary School,27.713960692857142,85.28895593571428,Polygon,way/224951439,school,,,,government,300.0,,,,no,,,,
school,Maitri School,27.710805766666667,85.28989354166667,Polygon,way/224951440,school,,,,private,530.0,,,,yes,,,,
school,Niravana Academy,27.7136017875,85.28770075416666,Polygon,way/224951441,school,,,,private,270.0,,,,,,,,
school,Tri Ratna Awashiya Vidyalaya,27.7126040375,85.29470951249999,Polygon,way/224955257,school,,,,private,547.0,,,,,,,,
school,Shining Path Public School,27.709474640000003,85.2982844,Polygon,way/224958189,school,school,,Shining Path Public School,private,235.0,,,,,,,,
school,Jagat Sundar Bwonekuthi Secondary School,27.70740158,85.30179858,Polygon,way/224959487,school,,,,community,275.0,,,,,,,,
school,Gyanodaya Secondary School,27.699217225,85.28443111499999,Polygon,way/224964866,school,,,,government,2000.0,,,,,,,,
school,Mary Poppins,27.689101644444445,85.32056091111112,Polygon,way/225008692,school,,,,private,75.0,,,,,,,,
school,,27.6888480375,85.3243462625,Polygon,way/225008708,school,,,Vinayak Shanti Niketan English Medium School,,,,,,,,,,
school,Kamolodaya Cambridge School,27.69019128,85.32459496,Polygon,way/225023084,school,,,,private,70.0,,,,,,,,
school,Pancha Kanya Secondary School,27.70467967142857,85.29016154285715,Polygon,way/225090694,school,,,,government,400.0,,,,,,,,
school,Pragya Secondary School,27.675319475,85.346391975,Polygon,way/225411935,school,,,,private,200.0,,,,,,,,
school,Sakela Academy,27.677841146153845,85.34344100769232,Polygon,way/225411936,school,,,,private,80.0,,,,,,,,
school,Tridevi Secondary School,27.676793466666663,85.34767826666666,Polygon,way/225411939,school,,,,private,165.0,,,,,,,,
school,Dipika School,27.679608322222222,85.34400947222223,Polygon,way/225415050,school,,,,private,250.0,,,,,,,,
school,Swarnim Tara Vidya Sadan,27.68015758333333,85.33927755,Polygon,way/225415051,school,,,,private,220.0,,,,,,,,
school,Kids International Academy,27.68939188,85.36397678,Polygon,way/225416471,school,school,,,private,90.0,,,,,,,,
school,Liberty Public School,27.6908089,85.3631713875,Polygon,way/225416472,school,,,,private,150.0,,,,,,,,
school,Manank Children's paradise Secondary School,27.68735846,85.35843776,Polygon,way/225416473,school,,,,private,275.0,,,,,,,,
school,Shri Sarweshwar Lower Secondary School,27.68213547,85.3547401,Polygon,way/225416474,school,,,,government,300.0,,,,,,,,
school,Fresh Buds School,27.710199275,85.3359901125,Polygon,way/225659849,school,,,,private,30.0,,,,,,,,
school,Aman English Boarding School,27.70467425714286,85.3233858,Polygon,way/225662357,school,,,,private,300.0,,,,,,,,
school,Asphodel Public school,27.702534216666667,85.32713363333333,Polygon,way/225662358,school,,,,private,540.0,,,,,,,,
school,New Don Bosco Academy,27.702389033333333,85.3232454,Polygon,way/225662359,school,,,,private,450.0,,,,,,,,
school,Trivei Public School,27.7022425,85.33403239333333,Polygon,way/225662360,school,,,,private,260.0,,,,,,,,
school,Aasha Mandir English Boarding School,27.705387257142856,85.33296862857142,Polygon,way/225662755,school,,,,private,70.0,,,,,,,,
school,Maple School,27.70903102,85.33068552,Polygon,way/225662964,school,,,,private,20.0,,,,,,,,
school,Alpine Valley School,27.73255039090909,85.33934747272727,Polygon,way/226064424,school,,,,private,250.0,,,,,,,,
school,National Creative Co-Educational School,27.72809969333333,85.33913220333334,Polygon,way/226064425,school,,,,private,180.0,,,,,,,,
school,Saraswati Education Academy,27.7282913,85.33565066000001,Polygon,way/226064426,school,,,,private,85.0,,,,,,,,
school,,27.696873385714287,85.33114007142856,Polygon,way/226335130,school,,,,,,,,,,,,,
school,Gorkha Kali English Boarding School,27.73752055,85.30400514166666,Polygon,way/226335479,school,,,,private,600.0,,,,,,,,
school,,27.70970508,85.30677378,Polygon,way/226358336,school,yes,,,,,,,,,,,,
school,V.S Angel World,27.685368957142856,85.34622754285715,Polygon,way/226392914,school,,,,private,24.0,,,,,,,,
school,Utprerana Women Secondary School,27.68455018,85.3454838,Polygon,way/226392915,school,school,,Utprerana Women Secondary School,community,100.0,,,,,,,,
school,Abhiyan Public School,27.73900646153846,85.30646743076923,Polygon,way/226475864,school,,,,private,321.0,,,,no,,,,
school,Career Building International Academy,27.691045242857143,85.36321571428572,Polygon,way/226670897,school,,+977-01-5156266,,private,650.0,,,,,,Kathmandu,,http://cbia.edu.np/
school,Nexus Academy,27.69134212727273,85.36601153636364,Polygon,way/226671393,school,,,,private,950.0,,,,,,,,
school,Kathmandu Neb Kider Garten,27.71035098,85.30575037999999,Polygon,way/226672278,school,yes,,private,,,,,10:00-17:00,,Khushi Bu,,,
school,Lotus Feet Boarding School,27.72660404,85.3131488,Polygon,way/226935927,school,,,,private,40.0,,,,,,,,
school,Genius English Boarding School,27.7243048,85.30573134,Polygon,way/226936250,school,,,,private,118.0,,,,,,,,
school,Kathmandu Little Blossoms Public School,27.72295472,85.3044231,Polygon,way/226936253,school,,,,private,340.0,,,,,,,,
school,Namuna Women School,27.722149179999995,85.30599604,Polygon,way/226936254,school,,,,community,130.0,,,,,,,,
school,Grace Educational Foundation,27.72649596,85.31114360000001,Polygon,way/226936938,school,,,,community,27.0,,,,,,,,
school,Gyan Sarobar Global English School,27.72880391111111,85.3058963111111,Polygon,way/226936939,school,,,,private,150.0,,,,,,,,
school,Gyanmandir Secondary English School,27.73199063636364,85.29644296363637,Polygon,way/226936940,school,,,,private,500.0,,,,,,,,
school,Kids Learning School,27.73882804,85.30435169,Polygon,way/226936942,school,,,,private,325.0,,,,,,,,
school,Nava Indra Dhanus B H School,27.7322272,85.298982025,Polygon,way/226936944,school,,,,private,230.0,,,,,,,,
school,Shree Bal Kalyan Primary School,27.72903452,85.30655704,Polygon,way/226936945,school,,,,government,151.0,,,,,,,,
school,Swati Sadan Higher Secondary School,27.73647415,85.304453,Polygon,way/226936946,school,,,,private,850.0,,,,,,,,
school,Tarun Secondary School,27.738460911111112,85.30278683333333,Polygon,way/226936947,school,,,,government,1922.0,,,,,,,,
school,Rajan Memorial International School,27.737472644444445,85.30338783333333,Polygon,way/226937084,school,,,,community,585.0,,,,,,,,
school,Rising Rays Boarding School,27.70304056666667,85.32463215555555,Polygon,way/227099243,school,,,,private,450.0,,,,,,,,
school,Rayners high school,27.69110996,85.34131794999999,Polygon,way/227100156,school,,,,private,130.0,,,,,,,,
school,Canvas English Boarding School,27.69474723,85.33119207,Polygon,way/227102784,school,,,,private,347.0,,,,,,,,
school,Shri Gyan Jyoti Women School,27.71308084,85.34410948,Polygon,way/227266651,school,,,,government,300.0,,,,,,,,
school,बृहस्पति विद्यासदन,27.71438927741936,85.33139512903226,Polygon,way/227267817,school,,4418030,,private,1217.0,,,Su-Fr 06:00-17:00,yes,,Kathmandu,,https://bvs.edu.np/
school,Buddha Jyoti Bal Udhan Lower Secondary School,27.73732062,85.30822454,Polygon,way/227276576,school,,,,government,400.0,,,,,,,,
school,Nil barahi Higher Secondary School,27.70046296875,85.3016536875,Polygon,way/227300984,school,,,,community,800.0,,,,,,,,
school,Punarbal Sikshya Sadan,27.70937229,85.28428273,Polygon,way/227752903,school,,,,community,56.0,,,,,,,,
school,AIMS International Academy,27.67890851111111,85.34521538888889,Polygon,way/227767847,school,,01 4600464,,private,300.0,,,,,,,,
school,Kanjirowa National School,27.67368375,85.34358793333332,Polygon,way/227767851,school,,,,private,493.0,,,,,,,,
school,Onyx School,27.677158066666667,85.35399783333334,Polygon,way/227894765,school,,,,private,50.0,,,,,,,,
school,Galaxy Public School,27.70764537068965,85.33073207413794,Polygon,way/228484986,school,,,,private,1900.0,,,,yes,,,,
school,Shine Model School,27.71118692,85.28366588,Polygon,way/228497416,school,,,,private,300.0,,,,,,,,
school,Jana Bikash Ucchha Secondary School,27.68256378125,85.29815645625,Polygon,way/228661942,school,,,,government,300.0,,,,,,,,
school,West Kids Montessori,27.68233746,85.2979538,Polygon,way/228661953,school,school,,West Kids Montessori,private,53.0,,,,,,,,
school,KMC School,27.68503416428572,85.33301003214285,Polygon,way/229132274,school,,,,private,1200.0,,,,,,,,
school,Kuleshwar Awas Secondary School,27.690753722222222,85.29297883333334,Polygon,way/229132277,school,,,,community,800.0,,,,,,,,
school,Rastriya Bal Sikshya,27.7099758125,85.30059655,Polygon,way/229143708,school,,,,private,284.0,,,,,,,,
school,Educational Environment,27.712999557142854,85.3009878,Polygon,way/229144315,school,,,,private,60.0,,,,,,,,
school,Golden Rays Academic Foundation,27.68402008,85.28051578,Polygon,way/229262874,school,,01 4330817,,private,300.0,,,,,,,,
school,लर्नहब प्राथमिक विद्यालय,27.719602020000004,85.33912078,Polygon,way/237203333,school,yes,,,,,,,,,,,,
school,kids heaven kindergarden school,27.71343164,85.36257862,Polygon,way/237652528,school,yes,,private,,,,,,,rudreshwor marg,municipality,6.0,
school,Pennwood School,27.71335416923077,85.3334736923077,Polygon,way/243644616,school,,,,,,,,,,,,,
school,excelsior school,27.71736036818181,85.28542481818182,Polygon,way/244356596,school,yes,,,,,,,,,,,,
school,Rose Bud School,27.687380409090903,85.32524838181818,Polygon,way/271389781,school,,01-4783003,,private,1500.0,,,,,,,,
school,Durbar High School,27.70786394,85.31399108000001,Polygon,way/300634292,school,school,,Government of Nepal,government,200.0,,,,,,,,
school,Gyankunj College,27.693807683333333,85.29069756666667,Polygon,way/334271590,school,,,,,,,,Su-Fr 06:00-16:00,,Nag Marg,,,
school,Purple Home International Pre-School,27.7035188875,85.33960455,Polygon,way/340547845,school,,,private,,,,,08:00-17:00,,,,,
school,,27.722463757142854,85.36758708571428,Polygon,way/340714195,school,,,,,,,,,,,,,
school,International Buddhist Academy,27.728948475,85.3700199375,Polygon,way/340721582,school,,,,,,,,,,,,,
school,Elite Grand School,27.7208729,85.35175862,Polygon,way/341029033,school,,,private,,,,,,yes,pasang lamhu sadak,,,
school,Mila Academy,27.72608590909091,85.35852911818182,Polygon,way/341552756,school,,,private,,,,,,,mahankal margh,,,
school,bodhi batika montessori based pre school,27.70634372,85.3434606,Polygon,way/341800380,school,,,private,,,,,,,benk tes marga,kathmandu municipality,,
school,Nisarga Batika school,27.69451833333333,85.29100218333333,Polygon,way/341977221,school,,,private,,,,,9:00-17:00,,machha gate,,,
school,Uniglobe College,27.68975549090909,85.33994971818181,Polygon,way/342425083,school,,,,,,,,,,,,,
school,shree tripura sundari grill udhyog,27.71226852,85.33713076,Polygon,way/342561812,school,yes,,,,,,,,,rudramati marg,municipality,,
school,Sambotta High School,27.697359,85.29121585714286,Polygon,way/343523193,school,yes,,private,,,,,09:00-16:00,,Pasang Lamhu sadak,,,
school,Saraswoti Academy English School,27.723935942857143,85.34995857142857,Polygon,way/347544886,school,,4811342_4498828,,private,400.0,,,,,,,,
school,Xavier International College,27.71380955714286,85.33712387142857,Polygon,way/356954717,school,yes,,,,,,,,,,,,
school,Lord Buddha School,27.705540688888888,85.33350107777778,Polygon,way/374102769,school,,,,,,,,,,,,,
school,Elite Kid's Zone,27.725379816666663,85.3512601,Polygon,way/427163244,school,,,,,,,,,,,,,
school,Tyod Secondary School,27.709275100000003,85.3119552,Polygon,way/496391174,school,yes,,,,,,,,,tanglachi marg,municipality,27.0,
school,Kuleshwar Secondry School,27.691208453846155,85.30170397692308,Polygon,way/500938895,school,,,,,,,,Su - Th 05:00-16:00; Fr 05:00 - 14:00,,kuleshwor,kathmandu,,
school,shemrock school,27.7108503,85.32648164285715,Polygon,way/501327959,school,,,private,,,,,08:00-16:00,,samamarg,kathmandu metro,,
school,kathmandu national school,27.6997838,85.34140375,Polygon,way/501368622,school,,,private,,,,,09:00-19:00,,surya bikram gyawali marga,municipality,,
school,sharaha international school,27.68278306666667,85.33791688333334,Polygon,way/501368625,school,,,private,,,,,09:00-16:00,,shankhamul marga,municipality,,
school,pure love nursery,27.71488266,85.33540325999999,Polygon,way/501568405,school,,,private,,,,,9:00 - 15:00,,hadigaun,municipality,5.0,
school,ashirv boarding school,27.72832768,85.33321246,Polygon,way/501644996,school,,,private,,,,,,,bhakta marg,municipality,4.0,
school,Boudha Secondary School,27.725650185714283,85.36296081428573,Polygon,way/501658742,school,,,private,private,,,,,,ramhiti,Kathmandu,6.0,
school,Lord Buddha Secondary School,27.72218542,85.36808906,Polygon,way/501678096,school,,,private,,,,,,,arab bank,municipality,6.0,
school,penwood academy,27.7407868,85.34020783333334,Polygon,way/501871530,school,,,private,,,,,,,kapan marga,kathmandu municipality,,
school,john academy,27.71373182,85.3655102,Polygon,way/501968361,school,school,,private,,,,,,,sarbeshwor marg,municipality,,
school,Little Genius Boarding School,27.72151156,85.29152904,Polygon,way/502019828,school,,,Private,,,,,10:00-16:00,,swoyambhu marga,Kathmandu Metro,,
school,little sweet heart kindergarden school,27.71520234,85.36412462000001,Polygon,way/502026014,school,,,,,,,,,,rudreshwor marg,municipality,6.0,
school,Kalalaya Art School,27.70846588,85.31009954,Polygon,way/502269458,school,yes,,private,,,,,,,Shrigha Chwok,,,
school,traibideya secondary school,27.68155456,85.33324734,Polygon,way/502293407,school,,,,private,,,,10:00-16:00,,yatapau marg,,,
school,liverpoolschool,27.68266374,85.33666625999999,Polygon,way/502296725,school,,,,private,,,,10:00-17:00,,yatapau marg,,,
school,Buddha Nagar Higher Sec. School,27.688588040000003,85.3289005,Polygon,way/502324260,school,,,public,,,,,10:00-17:00,,Kanyam Chwok,,,
school,Manamuhan Memorial College,27.72780102,85.30373686,Polygon,way/502355924,school,,,Private,,,,,Su-Fr 06:00-17:00,,Balaju,Kathmandu Metro,,
school,Valley View English Boarding School,27.69675615,85.33962673333333,Polygon,way/511205282,school,,4473693,,,,,,,,,,,proed.edu.np
school,INDEBS Kids World,27.69596243333333,85.34361118333334,Polygon,way/511302578,school,,4476499,,,,,,,,,,,
school,Gitamata Madhyamik Vidyalaya,27.709959425,85.29682913125,Polygon,way/523660615,school,,,public,,,,,,,,Kathmandu Metropolitan City,,
school,,27.6934127,85.35042092,Polygon,way/540190094,school,,,,,,,,,,,,,
school,Aditya School,27.732554607142852,85.29246707857143,Polygon,way/648644120,school,,,,,,,,,,,,,
school,New Florence International Boarding School,27.70094091,85.30171944,Polygon,way/652003436,school,,,,,,,,,,,,,
school,Trimurti Academy,27.740389566666668,85.34414262222222,Polygon,way/770747145,school,,+97714373605,Trimurti Academy,private_non_profit,,,,Mo-Su 9:00-15:00,,,,,https://trimurti.edu.np
school,Aroma Kids Zone,27.69661964,85.28476354,Polygon,way/904157282,school,,,,,,,,,,,,,https://www.facebook.com/profile.php?id=100010500396309
school,Kamal Netra Chuna Muna English Boarding School,27.6980422875,85.3440331125,Polygon,way/1092348128,school,,"01-4490647, 01-4469712",,,,,,,,,,,https://kamalnetrachhunamuna.edu.np/
school,Riviera Internation School,27.717620935714287,85.35232277142858,Polygon,way/1120950483,school,,,,private,,,,,,New Shreejan Galli,Chabahil Kathmandu,,https://www.riviera.edu.np/
school,Durga Bhawani Academy (DBA) School,27.72911685,85.34185766666667,Polygon,way/1178788192,school,,,,,,,,,,,,,
school,Kathmandu Valley School,27.73884810869565,85.29076993043478,Polygon,way/1186458007,school,yes,,,,,,,,,,Kathmandu,,
school,Deerwalk Group,27.712290303636365,85.34231847636363,Polygon,way/1329933995,school,,,,,,,,,,,,,https://deerwalk.edu.np/
school,अक्सफर्ड बोर्डिङ स्कुल,27.7201758,85.3017867,Point,node/575231600,school,,,,,,,,,,,,,
school,सचदेवा संस्थान,27.7032639,85.3192223,Point,node/1892796767,school,,,,,,,,,,,,,
school,डेनेब इन्टरनेशनल स्कुल,27.6915987,85.3318806,Point,node/1894371660,school,yes,,,,,,,,,,,,
school,सहयोगी बैकलपिक विद्यालय,27.7209655,85.3316446,Point,node/1899470621,school,,,,,,,,,,,,,
school,शुसिला कला एकेडेमी,27.7385565,85.343658,Point,node/1905155374,school,,,,,,,,,,,,,
school,न्यु सम्मिट विद्यालय,27.7038766,85.3332513,Point,node/1905312697,school,,,,,,,,,,,,,
school,बेगीनर्स होम एकेडेमी,27.7008865,85.3220186,Point,node/1905319787,school,,,,,,,,,,,,,
school,काठमाडौं उपत्यका शिक्षा केन्द्र,27.701804,85.322144,Point,node/1905332715,school,,,,,,,,,,,,,
school,अमेरिकन एजुकेशन फाउण्डेशन,27.7029137,85.3225938,Point,node/1905343593,school,,,,,,,,,,,,,
school,राइजिङ रे बोर्डिङ स्कूल,27.7026443,85.3230168,Point,node/1905354084,school,,,,,,,,,,,,,
school,सिमा सीए वर्गहरू क्लासेस,27.7021604,85.3244126,Point,node/1905359703,school,,,,,,,,,,,,,
school,भाइब्रेन्ट प्रवेश तयारी संस्था ,27.7011113,85.3237769,Point,node/1905365904,school,,,,,,,,,,,,,
school,Universal language and computer institute,27.7050283,85.3250159,Point,node/1905390641,school,,,,,,,,,,,,,
school,lगोल्डेन अफ विश्डम विद्यालय,27.6784452,85.3410579,Point,node/1923834353,school,,,,,,,,,,,,,
school,बाबा शिक्षा एकेडेमी,27.6790867,85.3478143,Point,node/1923848923,school,,,,,,,,,,,,,
school,एपेक्स लाइफ स्कुल,27.6990267,85.3377305,Point,node/1939209004,school,,,,,,,,,,,,,
school,काठमाडौं अंग्रेजी विद्यालय,27.7132927,85.3324399,Point,node/1962367562,school,,01 4414369,,,,,,Su-Fr; Sa 10:00-16:00,,,,,
school,वेस्टवुड  इन्टरनेसनल प्री विद्यालय,27.7225939,85.3134439,Point,node/1967824833,school,,,,,,,,,,,,,
school,किन्डर केयर इन्टरनेसनल,27.7204411,85.3096223,Point,node/1977514708,school,,,,,,,,,,,,,
school,सेक्रेड कोस्मोस इन्टरनेशनल एजुकेशन फाउन्डेशन प्रि-स्कूल,27.7260679,85.3132038,Point,node/1979178693,school,,,,,,,,,,,,,
school,क्युट चाइल्ड मन्टेश्वरी,27.7283845,85.3126767,Point,node/1982131524,school,,,,,,,,,,,,,
school,पाठशाला नेपाल,27.6941911,85.3336305,Point,node/1996610766,school,,,,,,,,,,,,,
school,अन्तर्राष्ट्रिय फ्रान्सेली विद्यालय-इकोल फ्रान्सेइज इन्टरनेसनल,27.7251132,85.3246132,Point,node/2011847246,school,,+977-1-4411203,,,,,,,,Khursanitaar Marga,Kathmandu,,www.ecolenepal.com
school,गोरखा शिक्षा तथा करियर संस्थान,27.7239808,85.3242486,Point,node/2011861271,school,,,,,,,,,,Srijana Marga,Kathmandu,,
school,होलिभिजन टेक्निकल क्याम्पस,27.6913849,85.3335848,Point,node/2027856790,school,,,,,,,,,,New Baneshwor,,,
school,मेट्रो हाई स्कूल,27.6913137,85.3336707,Point,node/2027857088,school,,,,,,,,,,New Baneshwor,,,
school,नोर्खिल एकेडेमी,27.691241,85.3293237,Point,node/2027880628,school,,,,,,,,,,,,,
school,साउथपोइन्ट बोर्डिङ हाई स्कूल,27.6887369,85.3284228,Point,node/2027893827,school,,,,,,,,,,,,,
school,एकता सदन आवासीय विद्यालय,27.7165875,85.3336128,Point,node/2090735367,school,,,,,,,,,,,,,
school,मिल्स बेरी स्कूल,27.7208063,85.3191849,Point,node/2101286233,school,,,,,,,,,,,,,
school,सान्द्रा नमुना विद्यालय,27.7194598,85.3095534,Point,node/2127144885,school,,,,,,,,,,,,,
school,वेस्टवुड इन्टरनेसनल प्री विद्यालय,27.7226708,85.3134273,Point,node/2127195667,school,,,,,,,,,,,,,
school,कान्ति इश्वरी विद्यालय,27.6933442,85.3131083,Point,node/2165424724,school,,,,,,,,,,,,,
school,किड्स गार्डन मन्टेश्वरी स्कूल,27.6819924,85.3481103,Point,node/2185607008,school,,,,,,,,,,,,,
school,नवज्योति विद्यालय एंड कलेज,27.6823907,85.3482925,Point,node/2185607011,school,,,,,,,,,,,,,
school,स्टिनर एकेडेमी,27.6938686,85.3387237,Point,node/2236944132,school,,,,,,,,,,,,,
school,Padmakanya Vidyashram H.S. School and College,27.705349,85.3259582,Point,node/2249051082,school,,,,,,,,,,,,,
school,मनाङ सीपीएस,27.6894641,85.3604248,Point,node/2300443767,school,,,,,,,,,,,,,
school,बेला प्रि स्कुल,27.7055958,85.2953507,Point,node/2591253673,school,,,,,,,,,,,,,
school,नेपाली महारिसी फाउन्डेसन फर भैदिक कल्चर,27.7112838,85.3398568,Point,node/3074577227,school,,,,,,,,,,,,,
school,सेतो बंगला आवासीय विद्यालय,27.7117352,85.3379743,Point,node/3074577231,school,,,,,,,,,,,,,
school,श्री बाल बयाबासाई केन्द्र माध्यमिक विद्यालय,27.7109927,85.3406025,Point,node/3074577232,school,,,,,,,,,,,,,
school,लिसेम मोडेल विद्यालय,27.714924,85.3405445,Point,node/3074593657,school,school,,,,,,,,,,,,
school,मानसरोवास एकेडेमी,27.7269249,85.3643667,Point,node/3189982097,school,,,,,,,,,,,,,
school,संस्कृती अन्तर्राष्ट्रिय विद्यालय,27.7187532,85.2862689,Point,node/3413954371,school,,,,,,,,,,,,,
school,रसायन विज्ञान विभाग,27.7088736,85.3162192,Point,node/3506396287,school,,9860140513,,,,,,,,,,,
school,जीवविज्ञान विभाग,27.7086504,85.3158005,Point,node/3506399401,school,,9860140513,,,,,,,,,,,
school,भौतिकशास्त्र विभाग,27.7086655,85.3162155,Point,node/3506400900,school,,9860140513,,,,,,,,,,,
school,,27.7118201,85.2877803,Point,node/3640850574,school,,,,,,,,,,,,,
school,अनाथ विद्यालय,27.7121382,85.2881646,Point,node/3640853051,school,,,,,,,,,,,,,
school,Apex Life School,27.7010309,85.3397059,Point,node/3774437963,school,,,,,,,,,,,,,
school,रुपी विद्यालय,27.7040669,85.2861028,Point,node/4063662843,school,,,,,,,,,,,,,
school,JosephPublic school,27.7273407,85.3578958,Point,node/4077719698,school,,,,,,,,,,,,,
school,व्यवस्थापन संघ नेपाल अनाम नगर,27.6964754,85.3283484,Point,node/4192737489,school,,,,,,,,24/7,,,,,
school,द ब्रिटिश कलेज,27.692103,85.3195495,Point,node/4200025289,school,,,,,,,,,,Thapathali,,,
school,चा: माटी ड्राइभिङ स्कुल,27.7229716,85.299763,Point,node/4213242789,school,,,,,,,,Mo-Su 06:00-19:00,,The Gyawali St.,,,
school,अर्किड इन्टरनेशनल कलेज,27.7023277,85.3466019,Point,node/4221465190,school,,014479744,,,,,,Su-Fr 06:00-18:00,,Bijay Chwok,,,https://oic.edu.np/
school,बिजेश्वरी ज्ञान मन्दिर सैनिक महाविद्यालय,27.7121657,85.2975626,Point,node/4234105891,school,,014271498,,,,,,Su-Fr 09:00-17:00,,,,,https://www.bgmsm.edu.np/
school,स्वीट हार्ट मोन्टेस्सोरी र डे केयर,27.7355047,85.2965478,Point,node/4264068285,school,,015102076,,,,,,,,,Kathmandu,,
school,ओक्सिडेन्टल विद्यालय मैदान,27.6966693,85.3309295,Point,node/4264083879,school,,,,,,,,,,,,,
school,नेपाल एकेडेमी अफ टुरिजम एण्ड होटल म्यानेजमेन्ट (नाथम),27.6938831,85.2949151,Point,node/4286241989,school,,,,,,,,,,,,,
school,"MIRD, TU",27.6867144,85.3279023,Point,node/4292085693,school,,,,,,,,,,,,,
school,क्यान्भास बसन्त रितु अंग्रेजी बोर्डिङ स्कुल,27.7266599,85.3167392,Point,node/4293342728,school,,,,,,,,,,,,,
school,माल्पी विज्ञान प्रयोगशाला,27.7236019,85.3288123,Point,node/4331159491,school,,,,,,,,,,Shubarna Shamsher Road,,,
school,एस.ई.आर.सी. विद्यालय,27.7308154,85.3299801,Point,node/4333786297,school,,,,,,,,Su-Fr 10:00-15:00,,Thirbam Sadak,,,
school,IDA,27.7150729,85.3431051,Point,node/4355786996,school,,,,,,,,Su-Fr 10:00-17:00,,Lam Pokhari Marg,,,
school,वेस्टवुड इन्टरनेशनल स्कूल,27.7020967,85.2936272,Point,node/4371576817,school,,,,,,,,,,,,,
school,शिन्वा कोरियन भाषा,27.705451,85.3205277,Point,node/4388706589,school,,016923152,,,,,,,,,,,
school,आईडीपी अष्ट्रेलिया,27.7182484,85.3190476,Point,node/4396927089,school,,,,,,,,,,,,,
school,स्टेइनर एकेडेमी,27.6983103,85.3330253,Point,node/4426503392,school,,,,,,,,,,,,,
school,,27.6924624,85.2956151,Point,node/4484880889,school,,4286300,,,,,,Su-Fr 10:00-22:00,,Pradhikaran Marg,,,
school,नवानीत बालबालिका क्षेत्र,27.6928769,85.2956147,Point,node/4485653289,school,,014286300,,,,,,,,Pradhikaran Marg,,,
school,स्टानडर्ड उच्च विद्यालय,27.6946945,85.2779402,Point,node/4485658891,school,,014280809,,,,,,Mo-Su 09:00-17:00,,Syuchatar,,,
school,हिमावारी जापानी परामर्श,27.7051472,85.3279851,Point,node/4516438589,school,,,,,,,,Su-Fr 10:00-17:00,,Dillibazaar Road,,,
school,प्राइम कलेज,27.7170365,85.3028299,Point,node/4520851990,school,,,,,,,,,,,,,
school,युनिग्लोब उच्च माध्यमिक विद्यालय,27.7073629,85.3190501,Point,node/4524218348,school,,977-1-4220722;4251409;4221875,,,,,,,,,,,
school,जनमैत्री बहुमुखी क्याम्पस,27.6919803,85.2922079,Point,node/4526539093,school,,,,,,,,,,,,,
school,व्हाइट फिल्ड स्कूल,27.7114065,85.306114,Point,node/4565172098,school,,,,,,,,,,,,,
school,स्मल हेबन मन्टेश्वरी विद्यालय,27.6879201,85.3450659,Point,node/4584771290,school,,,,,,,,,,,,,
school,ईलाईट बैदेशिक स्टडिज,27.7001084,85.3440681,Point,node/4585354089,school,,+977-1-4489536,Salina Shahi,,,,,Su-Fr 10:00-17:00,,Bhimsen Gola Marga,,,http://www.eliteabroadstudies.com
school,हिमालय क्लब डे साइन्सिया,27.6843823,85.3470433,Point,node/4588419890,school,,,,,,,,,,,,,
school,डफोडिल आवासीय स्कुल-जुनियर विंग,27.7265389,85.3553752,Point,node/4607247591,school,,4114176,,,,,,,,,,,
school,प्राइम इन्टरनेशनल एजुकेशन प्रा. लि.,27.7156468,85.346201,Point,node/4631414801,school,,01-4468848,Bikas Ghimire and Salam Singh Younjan,,,,,Su-Fr 07:00-18:00,,Ring Road,,,http://info@primeintl.edu.com
school,डीआरएस विद्यालय,27.6787187,85.3441951,Point,node/4632281392,school,,,,,,,,,,,,,
school,सेभेन हिल्स फाउण्डेशन (एजुकेशन कन्सल्टेन्सी),27.7030497,85.3217301,Point,node/4636693590,school,,012294245,Anil Sah,,,,,Su-Fr 10:00-17:00,,,,,http://www.7hf.edu.np
school,,27.7024948,85.3217645,Point,node/4681234990,school,,014168051,saroj shrestha,,,,,,,,,,
school,इन्टर्नशिप नेपाल,27.7312958,85.3307161,Point,node/4732355626,school,,,Nardev,,,,,,,,,,https://www.internshipnepal.com/
school,महान सिद्धार्थ उच्च माध्यमिक विद्यालय,27.7157017,85.3567824,Point,node/4785943923,school,,4114176,,,,,,,,,,,https://www.msschool.edu.np/
school,आस्ना शिक्षा संस्थान,27.7389143,85.3369616,Point,node/4788108722,school,,4720090,,,,,,,,,,,
school,मोक्षदा विद्यालय,27.7130764,85.3553954,Point,node/4793424623,school,,4114176,,,,,,,,,,,
school,ज्ञान मन्दिर माध्यमिक ब्लाक बी,27.7317346,85.2978571,Point,node/4797824822,school,,,,,,,,,,Shree Ganesthaan Marga,,,
school,पद्मोदया उच्च माध्यमिक विद्यालय,27.7015277,85.3218282,Point,node/4809187725,school,,,,,,,,,yes,,,,
school,,27.7001115,85.3353715,Point,node/4813487123,school,,014471915,,,,,,,,Tanka Prasad Marga,,,https://www.iacer.edu.np/
school,किंडर कास्टल पूर्व-विद्यालय,27.72401,85.3318866,Point,node/4824360523,school,,014414151,,,,,,,,,,,
school,,27.7004744,85.3208527,Point,node/4844865058,school,,,,,,,,,,,,,
school,नीलगिरि विद्यालय,27.7174321,85.3085101,Point,node/4854790124,school,,,,,,,,,,,,,
school,एभरेष्ट इन्जिनियरिङ एण्ड म्यानेजमेन्ट कलेज,27.6867088,85.327972,Point,node/4879629522,school,,,,,,,,,,,,,
school,ग्लोबल स्टडी पार्टनर्स नेपाल,27.700836,85.3237777,Point,node/4929157924,school,,+977 1-2238880,,,,,,Su-Fr 10:00-17:00,,New Plaza Road,,,https://globalstudypartners.com/
school,एसीई उच्च माध्यमिक विद्यालय,27.6915213,85.3499746,Point,node/4935574824,school,,,,,,,,,,,,,
school,ल्याण्डमार्क कन्सलटेन्सी,27.7031253,85.3228679,Point,node/4939483121,school,,,,,,,,,,,,,
school,,27.7104768,85.3310345,Point,node/5013793822,school,,,,,,,,,,,,,
school,केईसी इंस्टिट्यूट,27.7030649,85.3219399,Point,node/5068575022,school,,,,,,,,24/7,,Adwait Marg,,,
school,संस्कार विद्यापीठ,27.6826868,85.295792,Point,node/5075029393,school,,,,,,,,,,,,,
school,रेडवुड एजुकेशन नेटवर्क,27.7169892,85.3335788,Point,node/5088825522,school,,,,,,,,,,Gahana Pokhari Marga,,,
school,,27.703466,85.3303921,Point,node/5101981923,school,,,,,,,,,,,,,
school,अक्षर एकेडेमी,27.7017892,85.333325,Point,node/5169208225,school,,,,,,,,,,,,,
school,अक्षर एकेडेमी,27.7018248,85.3328741,Point,node/5200110921,school,,,,,,,,,,ghatte khulo,,,
school,पाइलन एकेडेमी,27.7396226,85.3369805,Point,node/5245747522,school,,014721043,,,,,,,,,,,
school,एडुकेयर एब्रोयड कन्सल्ट प्रा. लि,27.6982139,85.2997341,Point,node/5349249522,school,,014288243,SP Bhattarai,,,,,Sa 09:00-18:00; Su-Fr 06:00-18:00,,,,,http://www.educare.com
school,स्काइफल शैक्षिक परामर्श,27.7055393,85.3230444,Point,node/5465965521,school,,014410965,,,,,,,,Dilli Bazaar Road,,,http://www.skyfall.edu.np
school,सिजल विदेश अध्ययन प्रा. लि,27.6951296,85.2812216,Point,node/5472163824,school,,01-5219099,Laxmi Paudel Pokhrel,,,,,Mo-Su 09:00-18:00,,Kalanki,,,
school,नेपाल पाथफाईन्दर कोएड,27.7031464,85.3458891,Point,node/5479588210,school,,,,,,,,,,,,,
school,माया एनिमेसन एकेडेमी,27.7092014,85.3149129,Point,node/5625028221,school,,9860140513,,,,,,,,Kanti Path,,,https://www.maya-animation.com/
school,,27.7053049,85.3218772,Point,node/5848783091,school,,,,,,,,,,,,,
school,बालपिथ प्राथमिक विद्यालय,27.6988617,85.3514459,Point,node/5921925039,school,,,,,,,,,,,,,
school,ग्यालेक्सी पब्लिक विद्यालय,27.7082521,85.3303915,Point,node/5921937437,school,,,,,,,,,,,,,
school,सहारा मन्टेश्वरी विद्यालय,27.7288719,85.3638078,Point,node/5981623810,school,,,,,,,,,,,,,
school,एलिम एकेडेमी,27.7400571,85.3359387,Point,node/5995657486,school,,+977-01-4720098,,,,,,,,,,,
school,सर्कोङ दोर्जी चाङ एकेडेमी,27.7141557,85.2875981,Point,node/5999458615,school,,,,,,,,,limited,,,,
school,,27.7081839,85.3316655,Point,node/6018706843,school,,,,,,,,,yes,,,,
school,गीतांजली उच्च माध्यमिक विद्यालय,27.7192068,85.3049487,Point,node/6021113419,school,,,,,,,,,limited,,,,https://heavenhimalaya.com
school,श्री बाल बयाबासाये केन्द्र माध्यमिक विद्यालय,27.7119204,85.3409446,Point,node/6043111642,school,,,,,,,,,yes,,,,
school,नेपालय विद्यालय,27.6947178,85.2856094,Point,node/6056988785,school,,,,,,,,,,,,,
school,भिजन मोन्टेस्सोरी विद्यालय,27.6775996,85.3485328,Point,node/6064240607,school,,,,,,,,,,,,,
school,हिमालय विद्यालय मन्दिर,27.7102419,85.3387995,Point,node/6089307783,school,,,,,,,,,,,,,
school,शिक्षा बाल विद्यालय,27.6892681,85.2947596,Point,node/6118675763,school,,,private,,,,,9:00-15:00,,gaurishankar margh,,,
school,पाराडाईज अन्तर्राष्ट्रिय एकेडेमी,27.7135639,85.3395827,Point,node/6122932185,school,,,,,,,,,,,,,
school,प्यारागन विद्यालय,27.7016314,85.3501038,Point,node/6170362473,school,,,,,,,,,,,,,
school,चे हाई स्कुल,27.7214995,85.3037948,Point,node/6771636474,school,,,,,,,,,,,,,
school,गीताञ‍्जली एकेडेमी,27.7221863,85.3029608,Point,node/6771648718,school,,,,,,,,,,,,,
school,शाइन होशिमी इन्टरनेसनल प्रा. लि.,27.6943979,85.3375493,Point,node/6880658785,school,,,,,,,,,,,,,
school,श्री पशुपति माध्यमिक विद्यालय,27.7161811,85.3459386,Point,node/7088157087,school,,,,,,,,,,,,,
school,तारापुञ्‍ज अंग्रेजी बोर्डिङ् स्कुल,27.7219756,85.3384428,Point,node/7285083587,school,,,,,,,,,,,,,
school,जिलेट स्कुल,27.6973057,85.2974847,Point,node/7925315385,school,,+97715165136,Netra Bahadur Limbu,,,,,Su-Fr 08:30-17:00,,,,,
school,हिमाली आवासीय विद्यालय,27.7031981,85.3488464,Point,node/8190619857,school,,,,,,,,,,,,,
school,मूनलाइट स्कूल,27.7371184,85.3413873,Point,node/8525111118,school,,,,,,,,,,,,,
school,यन्त्र हाउस,27.7254607,85.3588544,Point,node/8631658317,school,,,,,,,,,,,,,
school,Linga Learning Institute,27.7102351,85.3109372,Point,node/8696390312,school,,,,,,,,,,,,,
school,सेन्ट लरेन्स विद्यालय,27.7146021,85.347502,Point,node/9401668319,school,,,,,,,,,,,,,
school,सब्दालय नेपाल,27.7143357,85.3430451,Point,node/9401668326,school,,,,,,,,,,,,,
school,बिश्व शिक्षा सदन,27.7174528,85.3497951,Point,node/9401668332,school,,,,,,,,,,,,,
school,श्रीति विद्यालय,27.7187605,85.3567481,Point,node/9425107720,school,,,,,,,,,,,,,
school,मिसन पब्लिक विद्यालय,27.7188793,85.3568821,Point,node/9425130718,school,,,,,,,,,,,,,
school,जेभियर इन्टरनेशनल मोन्टेस्सोरी विद्यालय,27.7186215,85.3566336,Point,node/9425132317,school,,,,,,,,,,,,,
school,लारनिंग ट्री विद्यालय,27.7231622,85.3596675,Point,node/9425159917,school,,,,,,,,,,,,,
school,इम्पाओररिङ्ग एसिया,27.7164631,85.3350835,Point,node/9447487918,school,,,,,,,,,,,,,
school,मल्पी सिटी विद्यालय,27.7126599,85.3295096,Point,node/9450088725,school,,,,,,,,,,,,,
school,संकटा प्राथमिक विद्यालय,27.7018563,85.3120351,Point,node/9482994712,school,,,,government,,,,,,,,,
school,महानकल माध्यमिक विद्यालय,27.7058779,85.3121169,Point,node/9491901304,school,,,government,government,415.0,,,,,mahaboudha ason,,27.0,
school,एन्जिलको विश्व अन्तर्राष्ट्रिय एकेडेमी,27.7388814,85.3309296,Point,node/9524096917,school,,,,,,,,,,,,,
school,स्मृति मोन्टेस्सोरी पूर्व विद्यालय,27.7464842,85.3389501,Point,node/9527376618,school,,016924707,,,,,,,,,,,
school,स्प्रिङभिल पूर्व विद्यालय,27.745922,85.3351946,Point,node/9527376621,school,,,,,,,,,,,,,
school,जेस्ट स्कूल,27.7408481,85.3321798,Point,node/9527376624,school,,014355754,,,,,,,,,,,
school,लिबर्टी माध्यमिक विद्यालय,27.7398317,85.3301894,Point,node/9527376626,school,,016211521,,,,,,,,,,,
school,ओरिएण्ट विद्यालय,27.7406612,85.3303007,Point,node/9527376627,school,,014354056,,,,,,,,,,,
school,बालकुञ्ज एकेडेमी,27.7460406,85.3353824,Point,node/9527376629,school,,,,,,,,,,,,,
school,ग्रेसल्याण्ड मोन्टेस्सोरी र डे केयर,27.7461898,85.3409464,Point,node/9527376640,school,,014017195,,,,,,,,,,,
school,रिपु मर्दिनी सैनिक माध्यमिक विधालय,27.7472381,85.3446848,Point,node/9527376641,school,,014374335,,,,,,,,,,,
school,मुलबेरी,27.7436846,85.3446585,Point,node/9527376644,school,,014017195,,,,,,,,,,,
school,बाला बटिका अन्तर्राष्ट्रिय विद्यालय,27.7390412,85.3035211,Point,node/9626942236,school,,014350678,,,,,,,,Kumarithan Marga,Kathmandu,,
school,राष्ट्रिय नमूना माध्यमिक विद्यालय,27.740617,85.3036347,Point,node/9626942237,school,,014381731,,,,,,,,Nepaltar Bridge,Kathmandu,,
school,युनिकेयर बाल स्कूल,27.7331252,85.3715762,Point,node/9722113224,school,,014466695,,,,,,,,,,,
school,गार्डन अफ बड्स प्रि स्कूल,27.7070513,85.3225908,Point,node/9916683303,school,,"014371208,014371186",,,,,,,,,,,https://www.gardenofbuds.org/
school,जेभियर अन्तर्राष्ट्रिय विद्यालय,27.7166254,85.3500671,Point,node/9927091118,school,,,,,,,,,,,,,
school,स्मृति बहुप्राविधिक शिक्षालय,27.6685844,85.3497323,Point,node/9969194346,school,,,,,,,,,,,,,
school,फेयरी ल्याण्ड मन्टेश्वरी,27.6685298,85.3505362,Point,node/9969194347,school,,,,,,,,,,,,,
school,ओलम्पस स्कुल,27.7471533,85.3362124,Point,node/10036366886,school,,,,,,,,,,,,,
school,प्यासन इन्टरनेसनल एजुकेशन प्रा. लि,27.6841295,85.3464702,Point,node/10121417288,school,,014111608,,,,,,,,,,,
school,शेमरोक किड्स वन्डरल्याण्ड,27.6811396,85.3473492,Point,node/10121523043,school,,,,,,,,,,,,,
school,जनकनाथ स्मृति माध्यमिक बिद्यालय,27.7182703,85.3136819,Point,node/10290840609,school,,,,,,,,,,,,,
school,श्री शान्ति बिध्यागृह माध्यमिक विद्यालय,27.717951,85.3136696,Point,node/10290840610,school,,01-4412099,,,,,,Sa-Th 09:00-16:00,,,,,
