place_id,name,lat,lng,type,rating,review_count,price_level,is_operational,source
osm_432195183,Hermann Helmers Bakery,27.6783303,85.312612,cafe,,,,True,openstreetmap
osm_435005609,क्याफे डु टेम्पल,27.6739264,85.3255321,cafe,,,,True,openstreetmap
osm_669269004,Cafe U,27.6826497,85.3062865,cafe,,,,True,openstreetmap
osm_669512726,Bay 7 Restaurant & Bar,27.6810649,85.3104154,cafe,,,,True,openstreetmap
osm_669530117,Vesper Cafe,27.6761258,85.3135444,cafe,,,,True,openstreetmap
osm_669530248,New Orleans Cafe,27.6760015,85.3142368,cafe,,,,True,openstreetmap
osm_671207877,Cafe Columbus,27.6770864,85.3095229,cafe,,,,True,openstreetmap
osm_675712062,Manna Cafe,27.678298,85.3122961,cafe,,,,True,openstreetmap
osm_873531754,Cafe 16,27.6760518,85.3126299,cafe,,,,True,openstreetmap
osm_1044375800,Cafe Du Temple,27.7217332,85.3614154,cafe,,,,True,openstreetmap
osm_1096317916,Korean Taste Restaurant,27.6743179,85.3182364,cafe,,,,True,openstreetmap
osm_1349658493,Annapurna,27.7153399,85.3116362,cafe,,,,True,openstreetmap
osm_1349664587,काठमाडौं टेरेस,27.7139958,85.3113644,cafe,,,,True,openstreetmap
osm_1349680676,Omei,27.7133125,85.312193,cafe,,,,True,openstreetmap
osm_1349680730,Momo,27.7113583,85.3087489,cafe,,,,True,openstreetmap
osm_1349697710,निर्मला,27.7161351,85.3099503,cafe,,,,True,openstreetmap
osm_1350468459,Museum Cafe,27.6733205,85.325561,cafe,,,,True,openstreetmap
osm_1389188958,कफी स्टेशन,27.6906972,85.3179342,cafe,,,,True,openstreetmap
osm_1399507907,Cuppas Cafe,27.7231911,85.2939657,cafe,,,,True,openstreetmap
osm_1497531274,The bakery cafe,27.6727379,85.3139678,cafe,,,,True,openstreetmap
osm_1497531288,Alinas Bakery Cafe,27.6725083,85.3152217,cafe,,,,True,openstreetmap
osm_1498876026,Bakery Cafe Teku,27.6961409,85.3080938,cafe,,,,True,openstreetmap
osm_1551745102,Cosmo De Cafe,27.704721,85.3061516,cafe,,,,True,openstreetmap
osm_1787021172,Unknown Cafe,27.669445,85.3284707,cafe,,,,True,openstreetmap
osm_1787036666,coffee corner,27.6715757,85.3193698,cafe,,,,True,openstreetmap
osm_1815689369,Transit Cafe,27.6737995,85.3119374,cafe,,,,True,openstreetmap
osm_1849461233,Chiya Pasal,27.6781561,85.3214047,cafe,,,,True,openstreetmap
osm_1849461260,चिया पसल,27.6784874,85.3211957,cafe,,,,True,openstreetmap
osm_1858151606,Jhapali Chiya Pasal,27.6787655,85.3212468,cafe,,,,True,openstreetmap
osm_1880051587,Cafe Hessed,27.6759765,85.3143833,cafe,,,,True,openstreetmap
osm_1891985126,The Bakery Cafe,27.7190407,85.331261,cafe,,,,True,openstreetmap
osm_1894153478,Roadhouse Cafe,27.7200796,85.3315321,cafe,,,,True,openstreetmap
osm_1898414114,Old House Cafe,27.7138792,85.3249137,cafe,,,,True,openstreetmap
osm_1898521001,Espression the cafe,27.7150782,85.3265014,cafe,,,,True,openstreetmap
osm_1904127993,क्याफे डु पाटन,27.6739665,85.3254442,cafe,,,,True,openstreetmap
osm_1904243455,kwalkhu cafe,27.6745207,85.324559,cafe,,,,True,openstreetmap
osm_1904311760,D'square Cafe,27.673636,85.3247448,cafe,,,,True,openstreetmap
osm_1904346816,The Side Walk Cafe,27.6736793,85.3244212,cafe,,,,True,openstreetmap
osm_1904414901,न्यूयोर्क क्याफे,27.6907767,85.3179357,cafe,,,,True,openstreetmap
osm_1905155386,भिडा क्याफे एण्ड ग्रिल,27.7385183,85.3392568,cafe,,,,True,openstreetmap
osm_1905155387,Universal Cafe,27.7393987,85.3389263,cafe,,,,True,openstreetmap
osm_1905315994,Ice cafe,27.7000991,85.3218351,cafe,,,,True,openstreetmap
osm_1917103306,3D Cafe and Bar,27.7388507,85.3356908,cafe,,,,True,openstreetmap
osm_1927427331,The Free Zone Cafe and Food Land,27.6779369,85.3475603,cafe,,,,True,openstreetmap
osm_1927559646,एनडीको,27.6693345,85.3357777,cafe,,,,True,openstreetmap
osm_1927600087,हार्ड सन क्याफे,27.6756626,85.3393721,cafe,,,,True,openstreetmap
osm_1937659964,Food Universe Cafe,27.6716109,85.3161255,cafe,,,,True,openstreetmap
osm_1937673105,ItalCaffe,27.669854,85.3163179,cafe,,,,True,openstreetmap
osm_1937692244,Jars of Clay Cafe,27.6774038,85.3087238,cafe,,,,True,openstreetmap
osm_1937702064,The Dream Cafe,27.6705475,85.3196002,cafe,,,,True,openstreetmap
osm_1937703863,The Green Cafe,27.6759908,85.3158284,cafe,,,,True,openstreetmap
osm_1937710492,A Cafe and Lounge,27.6750154,85.3023732,cafe,,,,True,openstreetmap
osm_1937710496,Albino Cafe,27.6785368,85.3053952,cafe,,,,True,openstreetmap
osm_1937718428,Junction Cafe,27.6729425,85.3156059,cafe,,,,True,openstreetmap
osm_1940788944,Green Land Cafe,27.6995084,85.3385865,cafe,,,,True,openstreetmap
osm_1942418343,Presca's Cafe,27.6989387,85.3384114,cafe,,,,True,openstreetmap
osm_1945608815,Susmita Hotel,27.6875204,85.3264731,cafe,,,,True,openstreetmap
osm_1945637495,यौंग हार्ट बेकरी क्याफे,27.6922058,85.3297984,cafe,,,,True,openstreetmap
osm_1947167450,A Cube Cafe,27.6898738,85.305712,cafe,,,,True,openstreetmap
osm_1960049080,Shreya Cafe,27.7243842,85.3399976,cafe,,,,True,openstreetmap
osm_1989508623,Bharyang Cafe,27.6856732,85.3453507,cafe,,,,True,openstreetmap
osm_1990673886,Chilly Cafe,27.6737341,85.3731909,cafe,,,,True,openstreetmap
osm_1990673919,Kavre Bhojanalaya,27.6736122,85.3755146,cafe,,,,True,openstreetmap
osm_1990673920,Khaja Ghar Bhojanalaya,27.6737663,85.3720156,cafe,,,,True,openstreetmap
osm_1990685701,Jiwan Dairy and Coffee Shop,27.6744984,85.3802486,cafe,,,,True,openstreetmap
osm_1990685704,Krishna Khaja Ghar,27.6741841,85.380032,cafe,,,,True,openstreetmap
osm_1996638818,Hearten Cafe,27.6972659,85.3379163,cafe,,,,True,openstreetmap
osm_2001058350,Coffee Time,27.7239892,85.3311792,cafe,,,,True,openstreetmap
osm_2001289200,Trendy Cafe,27.7257736,85.3309047,cafe,,,,True,openstreetmap
osm_2006116226,Tifin Home,27.7175696,85.3289324,cafe,,,,True,openstreetmap
osm_2006144707,Bhatbhateni Cafe,27.7200213,85.330637,cafe,,,,True,openstreetmap
osm_2006419428,Aabhusan Cafe,27.712805,85.32775,cafe,,,,True,openstreetmap
osm_2027854015,MoM'S KITCHEN,27.6914823,85.3329545,cafe,,,,True,openstreetmap
osm_2027866686,Anmol Catering Service,27.6906279,85.3348877,cafe,,,,True,openstreetmap
osm_2028654097,Unknown Cafe,27.6997967,85.3442166,cafe,,,,True,openstreetmap
osm_2039623011,Green Cafe,27.6753443,85.3447602,cafe,,,,True,openstreetmap
osm_2047712323,City Food Cafe Restaurant,27.6813986,85.317548,cafe,,,,True,openstreetmap
osm_2071332684,NAXA Canteen,27.7307848,85.3295597,cafe,,,,True,openstreetmap
osm_2072662338,Lama's Cafe,27.7303055,85.325174,cafe,,,,True,openstreetmap
osm_2073153212,Niyalo Cafe,27.7309421,85.3298884,cafe,,,,True,openstreetmap
osm_2074278687,Centre Point Cafe,27.7306908,85.3258394,cafe,,,,True,openstreetmap
osm_2077194592,80's Cafe,27.7419992,85.3310492,cafe,,,,True,openstreetmap
osm_2077238425,New Horizon cafe,27.7385718,85.3252583,cafe,,,,True,openstreetmap
osm_2077238426,Oasis Cafe,27.7396353,85.3269549,cafe,,,,True,openstreetmap
osm_2079502752,Green Belt Momo centre,27.7423306,85.3332257,cafe,,,,True,openstreetmap
osm_2082921627,शिशा क्याफे र लाउन्ज,27.703437,85.3103733,cafe,,,,True,openstreetmap
osm_2082988632,A to Z Bakery Cafe,27.7209147,85.331515,cafe,,,,True,openstreetmap
osm_2083721972,Everest Tea House,27.7035939,85.3076355,cafe,,,,True,openstreetmap
osm_2083743586,बज्र क्याफे,27.7044882,85.3062093,cafe,,,,True,openstreetmap
osm_2084372327,Sarita Bakery & Cafe,27.7216891,85.3355606,cafe,,,,True,openstreetmap
osm_2088458832,Radhe Radhe Bakery Cafe,27.7213424,85.337798,cafe,,,,True,openstreetmap
osm_2090601780,Barista Lavazza,27.718423,85.3189324,cafe,,,,True,openstreetmap
osm_2090623548,दरबार क्याफे र फास्ट फूड,27.7179881,85.3217275,cafe,,,,True,openstreetmap
osm_2090626818,Falcha cafe,27.717935,85.3307553,cafe,,,,True,openstreetmap
osm_2090732553,Peace Corner Food Cafe,27.7174037,85.3251821,cafe,,,,True,openstreetmap
osm_2090735351,अनु बेकरी र कफी पसल,27.7169692,85.3333621,cafe,,,,True,openstreetmap
osm_2090735354,BNR Coffee Shop and Cold Store,27.7165157,85.3330091,cafe,,,,True,openstreetmap
osm_2091833637,Sushant Bakery Cafe,27.719776,85.3373561,cafe,,,,True,openstreetmap
osm_2097704747,Coffee Express,27.710668,85.3177124,cafe,,,,True,openstreetmap
osm_2110391641,Prashanna's Cafe,27.6706835,85.2790149,cafe,,,,True,openstreetmap
osm_2111924049,Bajra Cafe,27.7089027,85.289138,cafe,,,,True,openstreetmap
osm_2117332527,Top Of The World Coffee,27.6806586,85.3104612,cafe,,,,True,openstreetmap
osm_2122394955,Peace Zone Cafe,27.6937402,85.2824554,cafe,,,,True,openstreetmap
osm_2144299583,Tukche Cafe,27.7244731,85.3311136,cafe,,,,True,openstreetmap
osm_2164025605,College Cafe,27.6892373,85.3121829,cafe,,,,True,openstreetmap
osm_2164964250,ASSA Cafe,27.6701365,85.3096762,cafe,,,,True,openstreetmap
osm_2166417287,The Bakery Cafe,27.7012362,85.3110726,cafe,,,,True,openstreetmap
osm_2166592516,The Coffee Shop,27.7113258,85.3173738,cafe,,,,True,openstreetmap
osm_2166593496,Magic Beans,27.7105055,85.3177578,cafe,,,,True,openstreetmap
osm_2166597514,Himalayan Java,27.703746,85.3076481,cafe,,,,True,openstreetmap
osm_2166606917,Snowman,27.702504,85.3079539,cafe,,,,True,openstreetmap
osm_2174589424,Lumbini Cafe,27.6948877,85.3405908,cafe,,,,True,openstreetmap
osm_2212506691,बेकरी क्याफे,27.7098873,85.3181147,cafe,,,,True,openstreetmap
osm_2236942184,Meet Point Cafe,27.6953955,85.3408978,cafe,,,,True,openstreetmap
osm_2297964825,Roadhouse Cafe,27.7209107,85.3619714,cafe,,,,True,openstreetmap
osm_2297964894,Unknown Cafe,27.719572,85.3204067,cafe,,,,True,openstreetmap
osm_2415851429,Khaja Ghar,27.674407,85.39254,cafe,,,,True,openstreetmap
osm_2520619641,Café Soma,27.6786722,85.3104479,cafe,,,,True,openstreetmap
osm_2521950150,Roadhouse Cafe,27.6761042,85.3130233,cafe,,,,True,openstreetmap
osm_2543546393,भाउजूको भट्टी,27.6817082,85.3199675,cafe,,,,True,openstreetmap
osm_2584735236,AITM Tea Shop,27.6569487,85.3329305,cafe,,,,True,openstreetmap
osm_2584769267,युनिटी फूड क्याफे,27.6583085,85.3239765,cafe,,,,True,openstreetmap
osm_2638075950,Lila Cold Store,27.6715423,85.2764525,cafe,,,,True,openstreetmap
osm_2684630120,hangout,27.6850859,85.3346508,cafe,,,,True,openstreetmap
osm_2684756028,Goel Bakery,27.6689905,85.3100817,cafe,,,,True,openstreetmap
osm_2684756431,Newari Fast Food,27.6688312,85.3098016,cafe,,,,True,openstreetmap
osm_2684757122,Tandoori fast food,27.671919,85.3129037,cafe,,,,True,openstreetmap
osm_2684757427,momomiya darjeeling restaurant,27.6687439,85.3097523,cafe,,,,True,openstreetmap
osm_2684761311,Abishek khaja Ghar,27.6708713,85.3120842,cafe,,,,True,openstreetmap
osm_2684763711,Kathmandu Tea Room,27.670217,85.3123899,cafe,,,,True,openstreetmap
osm_2684764300,New Tasty Khaja Ghar,27.6707265,85.3119549,cafe,,,,True,openstreetmap
osm_2684766528,Chiya Pasal,27.6697599,85.3125156,cafe,,,,True,openstreetmap
osm_2684769795,Bijukchhe Khaja Ghar,27.673687,85.3119559,cafe,,,,True,openstreetmap
osm_2684770259,Manavog Cafe,27.6719459,85.3121674,cafe,,,,True,openstreetmap
osm_2684803815,the swkuwa and tass ghar,27.6720317,85.3170501,cafe,,,,True,openstreetmap
osm_2684812788,monu thapa khaja ghar,27.667657,85.3094719,cafe,,,,True,openstreetmap
osm_2684818080,Common Cafe Sekuwa Corner,27.6671784,85.3163129,cafe,,,,True,openstreetmap
osm_2684818087,Unknown Cafe,27.6665351,85.3142779,cafe,,,,True,openstreetmap
osm_2684818090,Unknown Cafe,27.6678446,85.3164552,cafe,,,,True,openstreetmap
osm_2684818420,Work N Roll,27.6715851,85.3159634,cafe,,,,True,openstreetmap
osm_2699906123,Dhumbarahi vojanalaya,27.7276422,85.3416028,cafe,,,,True,openstreetmap
osm_2700730521,Yaktumba De-Cafe,27.6543036,85.3057008,cafe,,,,True,openstreetmap
osm_2702359050,Kathmandu Coffee,27.6538132,85.3044253,cafe,,,,True,openstreetmap
osm_2754314875,Islington Canteen,27.7077309,85.3251574,cafe,,,,True,openstreetmap
osm_2785785596,Julie's Bakery Cafe,27.7179184,85.3168442,cafe,,,,True,openstreetmap
osm_2858843075,S Cafe and Coffee Shop,27.6866445,85.3094098,cafe,,,,True,openstreetmap
osm_2978585626,Khawa Karpo Tasty Noodle Factory,27.7248538,85.3644964,cafe,,,,True,openstreetmap
osm_2990731066,New Chatterbox Cafe,27.7246276,85.3645888,cafe,,,,True,openstreetmap
osm_3038281087,Royal Food Cafe,27.6641281,85.3153017,cafe,,,,True,openstreetmap
osm_3060871361,ओफुकुरो नो अजी,27.7128527,85.3112566,cafe,,,,True,openstreetmap
osm_3069572516,गौतम बेकरी,27.7070868,85.3230587,cafe,,,,True,openstreetmap
osm_3072758224,sekuwa corner,27.7492159,85.3470799,cafe,,,,True,openstreetmap
osm_3072783382,CS sekuwa,27.7313219,85.3491615,cafe,,,,True,openstreetmap
osm_3072786827,Unknown Cafe,27.6750366,85.3630475,cafe,,,,True,openstreetmap
osm_3074563847,Cross Road Cafe,27.7080891,85.3395574,cafe,,,,True,openstreetmap
osm_3074563855,RK Cafe,27.7081079,85.3396627,cafe,,,,True,openstreetmap
osm_3074569319,Newaaz cafe,27.708086,85.3399227,cafe,,,,True,openstreetmap
osm_3074585435,Sagar Coke and Coffee Shop,27.7133195,85.344512,cafe,,,,True,openstreetmap
osm_3074604293,Bridge Side Cafe,27.7081611,85.3376065,cafe,,,,True,openstreetmap
osm_3074604294,Cross Road Cafe,27.708259,85.3395086,cafe,,,,True,openstreetmap
osm_3074604300,Motorway Sifal Chiya Pasal,27.7096211,85.3398649,cafe,,,,True,openstreetmap
osm_3076357353,Himalayan Java,27.7069817,85.323031,cafe,,,,True,openstreetmap
osm_3092671527,Besmullah,27.7174396,85.3122819,cafe,,,,True,openstreetmap
osm_3094285270,चिलिस रेस्टुरेन्ट,27.7144574,85.3118441,cafe,,,,True,openstreetmap
osm_3144951825,Stranger Cafe,27.7111207,85.3087644,cafe,,,,True,openstreetmap
osm_3146940897,स्टार बीन क्याफे,27.683142,85.3054544,cafe,,,,True,openstreetmap
osm_3155909220,बिरगंज पर्सा सेकुवा कर्नर,27.6929705,85.2794094,cafe,,,,True,openstreetmap
osm_3155930667,Pappu Paratha Pasal,27.692768,85.2787744,cafe,,,,True,openstreetmap
osm_3164871676,Coffee Club,27.703579,85.3083427,cafe,,,,True,openstreetmap
osm_3188098274,Revolution Cafe,27.7150392,85.3125311,cafe,,,,True,openstreetmap
osm_3188098276,बेकरी क्याफे,27.7140781,85.3139167,cafe,,,,True,openstreetmap
osm_3221224948,Unknown Cafe,27.7185971,85.3366663,cafe,,,,True,openstreetmap
osm_3221248085,Unknown Cafe,27.7294145,85.3309557,cafe,,,,True,openstreetmap
osm_3254965461,MM cyber,27.6702032,85.2809058,cafe,,,,True,openstreetmap
osm_3254986164,Unknown Cafe,27.6716253,85.2820784,cafe,,,,True,openstreetmap
osm_3254988261,BGanesh Maharan's cafe,27.6730065,85.2770844,cafe,,,,True,openstreetmap
osm_3280226571,MM Cyber,27.6734825,85.2799798,cafe,,,,True,openstreetmap
osm_3296145676,Bekharam's Cafe and Ice-cream,27.6733179,85.2760882,cafe,,,,True,openstreetmap
osm_3307465007,Chat Pate Pasal,27.676753,85.2787785,cafe,,,,True,openstreetmap
osm_3316989679,French Bakery,27.7127874,85.3086857,cafe,,,,True,openstreetmap
osm_3325075145,हिमालय जाभा क्याफे,27.7099111,85.3170338,cafe,,,,True,openstreetmap
osm_3329427562,एक्सप्रेसो डिलाईट,27.7094121,85.3166482,cafe,,,,True,openstreetmap
osm_3331617443,हिमालय जाभा २,27.7141537,85.3138962,cafe,,,,True,openstreetmap
osm_3341061785,Nilkantha's tea shop,27.6747052,85.2792158,cafe,,,,True,openstreetmap
osm_3347632389,Coffee and Cupcakes,27.6821723,85.3168394,cafe,,,,True,openstreetmap
osm_3363046525,S2 bakery and momo,27.7118262,85.3417089,cafe,,,,True,openstreetmap
osm_3366665677,Corner Cafe,27.71504,85.3298055,cafe,,,,True,openstreetmap
osm_3391516598,Café Soma,27.7275171,85.330661,cafe,,,,True,openstreetmap
osm_3439142083,Phat Khat,27.7138998,85.3105382,cafe,,,,True,openstreetmap
osm_3464574293,Delicious Cafe,27.7103555,85.3109833,cafe,,,,True,openstreetmap
osm_3476380391,यपागोडा क्याफे,27.710532,85.3149905,cafe,,,,True,openstreetmap
osm_3479423299,क्याफे दे जमल,27.7098097,85.314637,cafe,,,,True,openstreetmap
osm_3487462891,Buddhawraps,27.7145713,85.3105422,cafe,,,,True,openstreetmap
osm_3488601015,Aroma,27.7089046,85.3147168,cafe,,,,True,openstreetmap
osm_3491198839,उत्तरी क्याफे,27.7138493,85.3133153,cafe,,,,True,openstreetmap
osm_3500756844,Narayan Krishna Hotel And Newari Khaja Ghar,27.6807113,85.3861075,cafe,,,,True,openstreetmap
osm_3506385601,क्याफेटेरिया,27.7089551,85.3166127,cafe,,,,True,openstreetmap
osm_3508175157,Hot Pot,27.7092396,85.3103229,cafe,,,,True,openstreetmap
osm_3508175183,Shreega Cafe,27.7096798,85.3100636,cafe,,,,True,openstreetmap
osm_3509030388,मामामिया,27.7088719,85.3150246,cafe,,,,True,openstreetmap
osm_3509034495,स्टार क्याफे,27.7094937,85.3165901,cafe,,,,True,openstreetmap
osm_3512744074,Unknown Cafe,27.6716826,85.3644137,cafe,,,,True,openstreetmap
osm_3560031334,Meeting spot ,27.6900693,85.3345818,cafe,,,,True,openstreetmap
osm_3599851625,सन क्याफे एण्ड बार,27.6785309,85.3102327,cafe,,,,True,openstreetmap
osm_3626551798,Coffee Shop,27.7219218,85.3624147,cafe,,,,True,openstreetmap
osm_3626551800,Unknown Cafe,27.7233361,85.3632029,cafe,,,,True,openstreetmap
osm_3626560512,Unknown Cafe,27.7224812,85.3631641,cafe,,,,True,openstreetmap
osm_3632051776,Namaste Khaja Ghar,27.679481,85.3858776,cafe,,,,True,openstreetmap
osm_3649326367,Unknown Cafe,27.7223113,85.363861,cafe,,,,True,openstreetmap
osm_3753930765,Mocha Pot,27.6784388,85.3142984,cafe,,,,True,openstreetmap
osm_3811339839,Cafe,27.7217885,85.3738388,cafe,,,,True,openstreetmap
osm_4020227088,Unknown Cafe,27.6743874,85.3235756,cafe,,,,True,openstreetmap
osm_4020230289,Unknown Cafe,27.6745195,85.3234431,cafe,,,,True,openstreetmap
osm_4020230290,Unknown Cafe,27.6749456,85.3235338,cafe,,,,True,openstreetmap
osm_4052345826,Coffee Time,27.7073887,85.3274038,cafe,,,,True,openstreetmap
osm_4099201703,हरे राम हरे कृष्ण भवन,27.7025675,85.3076074,cafe,,,,True,openstreetmap
osm_4141167689,Cafe,27.7016958,85.3268655,cafe,,,,True,openstreetmap
osm_4155180091,Kavreli cafe,27.7118379,85.3541503,cafe,,,,True,openstreetmap
osm_4155225589,Unknown Cafe,27.7134002,85.3503855,cafe,,,,True,openstreetmap
osm_4170922389,कर्म कफी ,27.6774904,85.311412,cafe,,,,True,openstreetmap
osm_4198396491,Sabrina,27.7333341,85.3380804,cafe,,,,True,openstreetmap
osm_4198642245,Swotha Tea and Coffee Shop,27.67488,85.3254496,cafe,,,,True,openstreetmap
osm_4198642246,Himalayan Cafe,27.7215128,85.3626336,cafe,,,,True,openstreetmap
osm_4248374398,राजन हाउस,27.6745667,85.3458842,cafe,,,,True,openstreetmap
osm_4250466798,Bliss Raw cafe,27.7222497,85.3623753,cafe,,,,True,openstreetmap
osm_4264062071,Norlahi Momo,27.7257983,85.3501285,cafe,,,,True,openstreetmap
osm_4264065757,Belle Ville,27.7223639,85.3312054,cafe,,,,True,openstreetmap
osm_4286217796,Unknown Cafe,27.6946485,85.2928546,cafe,,,,True,openstreetmap
osm_4293343214,Red pepper cafe,27.7174713,85.3273617,cafe,,,,True,openstreetmap
osm_4294367314,सनराइज क्याफे,27.6877796,85.3162127,cafe,,,,True,openstreetmap
osm_4295544047,Unknown Cafe,27.6837201,85.3859155,cafe,,,,True,openstreetmap
osm_4299434289,चिया र कफी,27.6627453,85.3059894,cafe,,,,True,openstreetmap
osm_4308987489,द लन्च बक्स,27.6861575,85.315713,cafe,,,,True,openstreetmap
osm_4329284695,Mellow Mug,27.6809659,85.3204337,cafe,,,,True,openstreetmap
osm_4329295892,Chiya Pasal,27.6732916,85.3247873,cafe,,,,True,openstreetmap
osm_4329327889,Dani's Handmade Coffee,27.6728835,85.3245667,cafe,,,,True,openstreetmap
osm_4342351590,Unknown Cafe,27.6827737,85.3871936,cafe,,,,True,openstreetmap
osm_4366575104,स्वादिष्ट समोसा!,27.728116,85.3544721,cafe,,,,True,openstreetmap
osm_4366618678,Unknown Cafe,27.7175541,85.3091367,cafe,,,,True,openstreetmap
osm_4370642891,Unknown Cafe,27.7034529,85.3070353,cafe,,,,True,openstreetmap
osm_4371612099,राम्रो खाना क्याफे,27.706281,85.2883237,cafe,,,,True,openstreetmap
osm_4377572768,Siddhartha Sweets and Bakery,27.6832434,85.3477695,cafe,,,,True,openstreetmap
osm_4396927189,अमित अंकित खाजा घर (अड्डा),27.6905661,85.2828665,cafe,,,,True,openstreetmap
osm_4401051297,Unknown Cafe,27.7081859,85.322004,cafe,,,,True,openstreetmap
osm_4403774690,सोहन,27.7063656,85.2970783,cafe,,,,True,openstreetmap
osm_4407301189,Unknown Cafe,27.6701675,85.3242253,cafe,,,,True,openstreetmap
osm_4411694208,बिया क्याफे बेकरी,27.7121724,85.2880845,cafe,,,,True,openstreetmap
osm_4418021591,Unknown Cafe,27.7188053,85.3175635,cafe,,,,True,openstreetmap
osm_4437847089,Teafresho Tea Lounge,27.7116015,85.3126146,cafe,,,,True,openstreetmap
osm_4454912989,Unknown Cafe,27.7199706,85.3175898,cafe,,,,True,openstreetmap
osm_4456060691,Chamena Griha,27.6951667,85.3238823,cafe,,,,True,openstreetmap
osm_4464318792,Unknown Cafe,27.6720257,85.3169819,cafe,,,,True,openstreetmap
osm_4473078805,Unknown Cafe,27.6533294,85.3047916,cafe,,,,True,openstreetmap
osm_4475439492,मोक्तान क्याफे,27.6816055,85.3201114,cafe,,,,True,openstreetmap
osm_4513310490,Unknown Cafe,27.724934,85.3606975,cafe,,,,True,openstreetmap
osm_4525794489,फ्रेश बिन्ज,27.6875922,85.3408528,cafe,,,,True,openstreetmap
osm_4531176389,कार्गो इन्टरनेट क्याफे,27.7159887,85.3114876,cafe,,,,True,openstreetmap
osm_4533107891,Unknown Cafe,27.7244004,85.3311633,cafe,,,,True,openstreetmap
osm_4537066792,Unknown Cafe,27.7206883,85.3621215,cafe,,,,True,openstreetmap
osm_4542809792,Unknown Cafe,27.7249512,85.3530592,cafe,,,,True,openstreetmap
osm_4543377289,Unknown Cafe,27.7235524,85.2711873,cafe,,,,True,openstreetmap
osm_4543411390,नेपको क्याफे र रेस्टुरेन्ट,27.712994,85.2898134,cafe,,,,True,openstreetmap
osm_4550087489,Unknown Cafe,27.7125495,85.2899786,cafe,,,,True,openstreetmap
osm_4553535333,Unknown Cafe,27.6889259,85.3089849,cafe,,,,True,openstreetmap
osm_4561938989,नाईस फुड क्याफे,27.6737801,85.3420983,cafe,,,,True,openstreetmap
osm_4561939189,मोमो पासाल,27.6770413,85.3427952,cafe,,,,True,openstreetmap
osm_4566227089,Unknown Cafe,27.721634,85.3625473,cafe,,,,True,openstreetmap
osm_4569964089,Unknown Cafe,27.6949284,85.3349583,cafe,,,,True,openstreetmap
osm_4601419793,Unknown Cafe,27.7172304,85.3156491,cafe,,,,True,openstreetmap
osm_4622809990,Unknown Cafe,27.7039759,85.3268385,cafe,,,,True,openstreetmap
osm_4631686301,Unknown Cafe,27.6811137,85.3204159,cafe,,,,True,openstreetmap
osm_4631686496,Unknown Cafe,27.6810705,85.3205353,cafe,,,,True,openstreetmap
osm_4637331289,फालानो कफी घर,27.6792609,85.3170332,cafe,,,,True,openstreetmap
osm_4646679991,Unknown Cafe,27.7214768,85.3201219,cafe,,,,True,openstreetmap
osm_4648488894,Unknown Cafe,27.6628945,85.2943699,cafe,,,,True,openstreetmap
osm_4658967594,Unknown Cafe,27.6916172,85.285672,cafe,,,,True,openstreetmap
osm_4664767490,Redmud Coffee,27.6931779,85.3190344,cafe,,,,True,openstreetmap
osm_4686989695,मिराज क्याफे र बेकरी,27.7186788,85.3119127,cafe,,,,True,openstreetmap
osm_4688178792,Unknown Cafe,27.7153615,85.3089237,cafe,,,,True,openstreetmap
osm_4691672790,Unknown Cafe,27.7182397,85.3102307,cafe,,,,True,openstreetmap
osm_4697135290,Unknown Cafe,27.6902605,85.3641305,cafe,,,,True,openstreetmap
osm_4702950592,राजिव चिया पसल,27.6848467,85.3352833,cafe,,,,True,openstreetmap
osm_4706228913,Unknown Cafe,27.6648349,85.3190656,cafe,,,,True,openstreetmap
osm_4707907789,Unknown Cafe,27.7263913,85.3025702,cafe,,,,True,openstreetmap
osm_4716645091,Unknown Cafe,27.749123,85.2953315,cafe,,,,True,openstreetmap
osm_4723545207,Unknown Cafe,27.6747667,85.3227411,cafe,,,,True,openstreetmap
osm_4723545211,Unknown Cafe,27.6747448,85.3232558,cafe,,,,True,openstreetmap
osm_4730045290,Unknown Cafe,27.7366443,85.324754,cafe,,,,True,openstreetmap
osm_4731474722,साजन फूड क्याफे र स्यान्डविच पसल,27.7134845,85.3120881,cafe,,,,True,openstreetmap
osm_4731862821,Unknown Cafe,27.6776598,85.3138856,cafe,,,,True,openstreetmap
osm_4739830723,Unknown Cafe,27.693052,85.3404039,cafe,,,,True,openstreetmap
osm_4741180321,Unknown Cafe,27.7055989,85.3256988,cafe,,,,True,openstreetmap
osm_4742382628,Unknown Cafe,27.6929724,85.3669302,cafe,,,,True,openstreetmap
osm_4742688321,ला पाना-अर्जेन्टिनी क्याफेटेरिया,27.6764587,85.3086333,cafe,,,,True,openstreetmap
osm_4744759928,Sharma's Tea Shop,27.6890496,85.3127722,cafe,,,,True,openstreetmap
osm_4754370529,Unknown Cafe,27.6783062,85.312212,cafe,,,,True,openstreetmap
osm_4754408622,Unknown Cafe,27.6781984,85.3128841,cafe,,,,True,openstreetmap
osm_4754408623,Busy Bean,27.6772801,85.3091608,cafe,,,,True,openstreetmap
osm_4754439622,Unknown Cafe,27.6782188,85.3156226,cafe,,,,True,openstreetmap
osm_4756445222,Unknown Cafe,27.7320573,85.3436325,cafe,,,,True,openstreetmap
osm_4756492325,Unknown Cafe,27.6766295,85.3189936,cafe,,,,True,openstreetmap
osm_4761809073,मिन पसल,27.7079204,85.3217593,cafe,,,,True,openstreetmap
osm_4764301222,Khyaspaal Koffee,27.7346352,85.3463886,cafe,,,,True,openstreetmap
osm_4764302326,प्रेगो बेकरी क्याफे,27.7316427,85.344813,cafe,,,,True,openstreetmap
osm_4767236880,Unknown Cafe,27.712684,85.3174635,cafe,,,,True,openstreetmap
osm_4772745425,Unknown Cafe,27.6884037,85.2702181,cafe,,,,True,openstreetmap
osm_4772746625,Unknown Cafe,27.6935201,85.2823501,cafe,,,,True,openstreetmap
osm_4773245721,Unknown Cafe,27.687271,85.248888,cafe,,,,True,openstreetmap
osm_4774250522,हिमालय जाभा कफी,27.7150517,85.3108944,cafe,,,,True,openstreetmap
osm_4774337221,सम क्याफे,27.7134327,85.3111405,cafe,,,,True,openstreetmap
osm_4784314322,Unknown Cafe,27.7204891,85.3564284,cafe,,,,True,openstreetmap
osm_4785806421,Unknown Cafe,27.7056692,85.3257513,cafe,,,,True,openstreetmap
osm_4787367224,Unknown Cafe,27.7325648,85.3442326,cafe,,,,True,openstreetmap
osm_4787717656,Unknown Cafe,27.6700363,85.3189878,cafe,,,,True,openstreetmap
osm_4787719477,Unknown Cafe,27.7366601,85.3481508,cafe,,,,True,openstreetmap
osm_4789454722,Unknown Cafe,27.711818,85.3651931,cafe,,,,True,openstreetmap
osm_4813035322,The Café with No Name,27.7149427,85.3106301,cafe,,,,True,openstreetmap
osm_4813039923,भगवान बाहल क्याफे,27.7153536,85.3123371,cafe,,,,True,openstreetmap
osm_4822511321,Unknown Cafe,27.6696453,85.3279588,cafe,,,,True,openstreetmap
osm_4829882721,Crave,27.6797926,85.3191098,cafe,,,,True,openstreetmap
osm_4832161821,Unknown Cafe,27.7234946,85.3622495,cafe,,,,True,openstreetmap
osm_4832255422,Himalayan Java Coffee,27.6771935,85.3169467,cafe,,,,True,openstreetmap
osm_4846949123,Unknown Cafe,27.7121939,85.3213096,cafe,,,,True,openstreetmap
osm_4853038422,Coffee Ghar,27.7156986,85.3082,cafe,,,,True,openstreetmap
osm_4861158321,Unknown Cafe,27.7154107,85.3086912,cafe,,,,True,openstreetmap
osm_4866405621,Unknown Cafe,27.694091,85.319602,cafe,,,,True,openstreetmap
osm_4866958021,Unknown Cafe,27.6698761,85.3824572,cafe,,,,True,openstreetmap
osm_4873219223,चाकु बाकु क्याफे,27.6898499,85.3353921,cafe,,,,True,openstreetmap
osm_4873577004,Citiy Tandoori Fast Food,27.666634,85.3138694,cafe,,,,True,openstreetmap
osm_4873927782,Moms Kitchen and Living Imports,27.6686264,85.3095591,cafe,,,,True,openstreetmap
osm_4890884826,Coffee Pasal,27.7126275,85.3174486,cafe,,,,True,openstreetmap
osm_4893549021,Unknown Cafe,27.7285622,85.3463772,cafe,,,,True,openstreetmap
osm_4896329122,Unknown Cafe,27.7405106,85.3994209,cafe,,,,True,openstreetmap
osm_4903561323,Unknown Cafe,27.7125117,85.3185407,cafe,,,,True,openstreetmap
osm_4916380621,Unknown Cafe,27.7171524,85.3254913,cafe,,,,True,openstreetmap
osm_4921602765,Kwality Cafe,27.7347207,85.3173512,cafe,,,,True,openstreetmap
osm_4922129021,Unknown Cafe,27.6951624,85.3357106,cafe,,,,True,openstreetmap
osm_4923827856,Phyaphulla Resturant,27.7230366,85.3798426,cafe,,,,True,openstreetmap
osm_4971818621,Unknown Cafe,27.670972,85.3193643,cafe,,,,True,openstreetmap
osm_4985309194,Universal Cafe,27.7393436,85.3389259,cafe,,,,True,openstreetmap
osm_4987042448,Unknown Cafe,27.724762,85.3804799,cafe,,,,True,openstreetmap
osm_4989351032,Unknown Cafe,27.6800302,85.386043,cafe,,,,True,openstreetmap
osm_5002503821,Unknown Cafe,27.6615087,85.2947464,cafe,,,,True,openstreetmap
osm_5006170124,Unknown Cafe,27.7438263,85.3405843,cafe,,,,True,openstreetmap
osm_5009206299,Ramsterdam Cafe,27.7268544,85.3645336,cafe,,,,True,openstreetmap
osm_5061881322,Unknown Cafe,27.7061168,85.3227821,cafe,,,,True,openstreetmap
osm_5073493823,Unknown Cafe,27.7033061,85.307447,cafe,,,,True,openstreetmap
osm_5075026794,Himalayan Java Coffee,27.7219078,85.3616193,cafe,,,,True,openstreetmap
osm_5094087721,Aroma Himalayan Coffee,27.6676055,85.3218404,cafe,,,,True,openstreetmap
osm_5094291071,doban resturants,27.7279967,85.3149955,cafe,,,,True,openstreetmap
osm_5121130135,Unknown Cafe,27.7174416,85.3261294,cafe,,,,True,openstreetmap
osm_5130457424,Unknown Cafe,27.7095485,85.3103734,cafe,,,,True,openstreetmap
osm_5158172421,Unknown Cafe,27.7286503,85.3258848,cafe,,,,True,openstreetmap
osm_5171143921,Palpasa Coffee,27.7119914,85.3096679,cafe,,,,True,openstreetmap
osm_5174102521,Unknown Cafe,27.6900618,85.3676639,cafe,,,,True,openstreetmap
osm_5175879624,Cafe Pashupati,27.7100558,85.3494056,cafe,,,,True,openstreetmap
osm_5177374622,Unknown Cafe,27.7058742,85.322789,cafe,,,,True,openstreetmap
osm_5217809629,क्रसरोड कफी हाउस,27.6578097,85.3259508,cafe,,,,True,openstreetmap
osm_5221096821,Unknown Cafe,27.6875981,85.340054,cafe,,,,True,openstreetmap
osm_5234480621,Evoke Cafe & Bistro,27.6760993,85.3107239,cafe,,,,True,openstreetmap
osm_5235946722,Unknown Cafe,27.7098282,85.3273068,cafe,,,,True,openstreetmap
osm_5255676225,लामी कफी,27.7142304,85.2946546,cafe,,,,True,openstreetmap
osm_5265547821,Unknown Cafe,27.6984953,85.2992487,cafe,,,,True,openstreetmap
osm_5276596723,Unknown Cafe,27.7384416,85.3351587,cafe,,,,True,openstreetmap
osm_5278771521,Unknown Cafe,27.6885664,85.3974137,cafe,,,,True,openstreetmap
osm_5278771622,Unknown Cafe,27.6867309,85.3971358,cafe,,,,True,openstreetmap
osm_5281048221,Unknown Cafe,27.6895546,85.3988129,cafe,,,,True,openstreetmap
osm_5289087423,Unknown Cafe,27.6839981,85.2397302,cafe,,,,True,openstreetmap
osm_5290826527,Unknown Cafe,27.7383815,85.3352595,cafe,,,,True,openstreetmap
osm_5304916525,Unknown Cafe,27.7463261,85.316654,cafe,,,,True,openstreetmap
osm_5331658619,Cafe Chheli,27.6763813,85.3120522,cafe,,,,True,openstreetmap
osm_5331658970,Nepabeanz,27.6870772,85.3115872,cafe,,,,True,openstreetmap
osm_5339943224,Unknown Cafe,27.7008244,85.3826938,cafe,,,,True,openstreetmap
osm_5360937821,Unknown Cafe,27.6881757,85.3309424,cafe,,,,True,openstreetmap
osm_5367652206,Amigo cafe,27.6886613,85.3353971,cafe,,,,True,openstreetmap
osm_5367691381,Coffee Tea & Me,27.6743388,85.3253999,cafe,,,,True,openstreetmap
osm_5382283622,Unknown Cafe,27.7087812,85.3244624,cafe,,,,True,openstreetmap
osm_5388494522,Unknown Cafe,27.6755912,85.3853638,cafe,,,,True,openstreetmap
osm_5390469021,Bonanza cafe & fast food,27.6736056,85.3428304,cafe,,,,True,openstreetmap
osm_5412418168,Charlotte Cafe,27.6703332,85.3201528,cafe,,,,True,openstreetmap
osm_5436915452,Eliz cafe,27.6770715,85.2807432,cafe,,,,True,openstreetmap
osm_5441928822,Numa's Cafe,27.6855317,85.3071544,cafe,,,,True,openstreetmap
osm_5443291921,cafe bliss,27.7139037,85.3112841,cafe,,,,True,openstreetmap
osm_5501106721,Unknown Cafe,27.6839764,85.2985299,cafe,,,,True,openstreetmap
osm_5516070827,Secret Garden Cafe,27.7137592,85.311701,cafe,,,,True,openstreetmap
osm_5554156823,हिमालु भान्सा,27.7152741,85.3121477,cafe,,,,True,openstreetmap
osm_5589803123,Rhino Cafe,27.7105782,85.3111406,cafe,,,,True,openstreetmap
osm_5604211228,Unknown Cafe,27.7201859,85.3627075,cafe,,,,True,openstreetmap
osm_5613227444,काइरोस क्याफे,27.6751441,85.3104475,cafe,,,,True,openstreetmap
osm_5631392922,Unknown Cafe,27.7234135,85.3619161,cafe,,,,True,openstreetmap
osm_5656359727,केटल क्याफे,27.7121786,85.3113068,cafe,,,,True,openstreetmap
osm_5675228621,Unknown Cafe,27.6718246,85.3878508,cafe,,,,True,openstreetmap
osm_5747075923,Unknown Cafe,27.7238984,85.3651352,cafe,,,,True,openstreetmap
osm_5811285128,Didiko Khaja ghar,27.6885854,85.3440943,cafe,,,,True,openstreetmap
osm_5841071390,Unknown Cafe,27.7076603,85.3189448,cafe,,,,True,openstreetmap
osm_5848260185,Unknown Cafe,27.7270979,85.3237688,cafe,,,,True,openstreetmap
osm_5867915590,Unknown Cafe,27.7041109,85.3103306,cafe,,,,True,openstreetmap
osm_5878337985,गल्ली क्याफे,27.7034416,85.3067313,cafe,,,,True,openstreetmap
osm_5889646685,Unknown Cafe,27.6570123,85.3183923,cafe,,,,True,openstreetmap
osm_5891993985,Unknown Cafe,27.6572062,85.3216051,cafe,,,,True,openstreetmap
osm_5899267496,धन दाइको खाजा घर,27.6625724,85.3193382,cafe,,,,True,openstreetmap
osm_5911756386,Unknown Cafe,27.7453621,85.316962,cafe,,,,True,openstreetmap
osm_5915864185,Unknown Cafe,27.6569384,85.3217452,cafe,,,,True,openstreetmap
osm_5917453286,Fudo Cafe,27.7295623,85.3308368,cafe,,,,True,openstreetmap
osm_5948298807,Kar.ma Coffee @ HUB,27.713477,85.312336,cafe,,,,True,openstreetmap
osm_5973756579,Down Town Cafe,27.7455935,85.3420463,cafe,,,,True,openstreetmap
osm_5973756583,Fortune Food Cafe & Gazal,27.7425935,85.3394122,cafe,,,,True,openstreetmap
osm_5981559530,Woodland Cafe,27.7294287,85.3603859,cafe,,,,True,openstreetmap
osm_5992292026,Avocado Cafe,27.7228664,85.3311397,cafe,,,,True,openstreetmap
osm_6002015505,Unknown Cafe,27.7152295,85.3085327,cafe,,,,True,openstreetmap
osm_6002021096,Unknown Cafe,27.7180858,85.3119467,cafe,,,,True,openstreetmap
osm_6022260588,Unknown Cafe,27.7234595,85.3631504,cafe,,,,True,openstreetmap
osm_6022300686,Unknown Cafe,27.7220987,85.3638741,cafe,,,,True,openstreetmap
osm_6022301486,Unknown Cafe,27.7243311,85.3645086,cafe,,,,True,openstreetmap
osm_6024633385,स्यानको,27.7180537,85.3124557,cafe,,,,True,openstreetmap
osm_6041542086,Just Coffee Nepal,27.7128297,85.3088942,cafe,,,,True,openstreetmap
osm_6046032271,Green Cafe,27.696748,85.3509388,cafe,,,,True,openstreetmap
osm_6048834185,श्याम पान पसल,27.6967354,85.2931566,cafe,,,,True,openstreetmap
osm_6055081186,Caffeophilia,27.6723068,85.3254709,cafe,,,,True,openstreetmap
osm_6056855122,Himalayan Beanz barista and bakery school,27.7085974,85.3259225,cafe,,,,True,openstreetmap
osm_6060120385,Unknown Cafe,27.6879899,85.3355698,cafe,,,,True,openstreetmap
osm_6064242847,Ruby Bakery Cafe,27.6742674,85.3723917,cafe,,,,True,openstreetmap
osm_6089785680,Unknown Cafe,27.6906623,85.3348016,cafe,,,,True,openstreetmap
osm_6105049588,क्याफे मित्रा,27.7126821,85.3111938,cafe,,,,True,openstreetmap
osm_6117187685,Unknown Cafe,27.6995757,85.2811467,cafe,,,,True,openstreetmap
osm_6123191786,Unknown Cafe,27.7060417,85.3094917,cafe,,,,True,openstreetmap
osm_6127734788,याला क्याफे,27.7122476,85.3115866,cafe,,,,True,openstreetmap
osm_6175883885,Unknown Cafe,27.728377,85.3516377,cafe,,,,True,openstreetmap
osm_6202563090,Unknown Cafe,27.6968325,85.2930821,cafe,,,,True,openstreetmap
osm_6203425585,Unknown Cafe,27.7006009,85.3397065,cafe,,,,True,openstreetmap
osm_6234086140,Coffee Nepal,27.7147203,85.3107101,cafe,,,,True,openstreetmap
osm_6262922285,Unknown Cafe,27.7068426,85.3224763,cafe,,,,True,openstreetmap
osm_6280119124,Red Cafe,27.7353344,85.3376844,cafe,,,,True,openstreetmap
osm_6286201186,Unknown Cafe,27.6887044,85.3949046,cafe,,,,True,openstreetmap
osm_6290791786,Bake House(Hot Breads),27.7135298,85.3102239,cafe,,,,True,openstreetmap
osm_6295152085,Unknown Cafe,27.7059588,85.3094289,cafe,,,,True,openstreetmap
osm_6302638985,कफी हाउस,27.714155,85.3129807,cafe,,,,True,openstreetmap
osm_6309935086,Unknown Cafe,27.6907642,85.3342747,cafe,,,,True,openstreetmap
osm_6342532344,हिमालयन ब्रु कफी,27.718273,85.3118525,cafe,,,,True,openstreetmap
osm_6371985765,H2O Cafe,27.7178141,85.3474135,cafe,,,,True,openstreetmap
osm_6385168419,The Bakery Cafe,27.7190451,85.3513103,cafe,,,,True,openstreetmap
osm_6389906885,छाउनी क्याफे,27.7079628,85.2966682,cafe,,,,True,openstreetmap
osm_6390260885,Cafe du Pashupati,27.7098173,85.3506801,cafe,,,,True,openstreetmap
osm_6398038386,Unknown Cafe,27.6856343,85.3206265,cafe,,,,True,openstreetmap
osm_6398053686,लाफिङ सेन्टर,27.7122766,85.3056782,cafe,,,,True,openstreetmap
osm_6398570286,कोटेश्वर पार्टी दरबार,27.6712163,85.3503315,cafe,,,,True,openstreetmap
osm_6425536987,Unknown Cafe,27.7395251,85.3117364,cafe,,,,True,openstreetmap
osm_6452250286,Cafe de Gengre,27.7116092,85.3089813,cafe,,,,True,openstreetmap
osm_6491265588,Unknown Cafe,27.7170094,85.3101934,cafe,,,,True,openstreetmap
osm_6503654687,Unknown Cafe,27.6752887,85.323854,cafe,,,,True,openstreetmap
osm_6516415585,Freddo Cafe,27.7129274,85.3087436,cafe,,,,True,openstreetmap
osm_6524367786,सामसरा कफी,27.7202207,85.3308557,cafe,,,,True,openstreetmap
osm_6532107785,भक्तपुरको स्पेशल दहि पसल,27.7293256,85.3307809,cafe,,,,True,openstreetmap
osm_6536357485,मेन्जसँग कफी,27.7155088,85.3091966,cafe,,,,True,openstreetmap
osm_6547035991,मिठाई पसल,27.7199022,85.3007539,cafe,,,,True,openstreetmap
osm_6548976166,नेवा क्याफे एण्ड फास्टफूड,27.6833582,85.3189191,cafe,,,,True,openstreetmap
osm_6562217255,Your Koseli,27.7179861,85.3248612,cafe,,,,True,openstreetmap
osm_6573684485,Unknown Cafe,27.6850752,85.3873125,cafe,,,,True,openstreetmap
osm_6584505486,Unknown Cafe,27.7010153,85.3226018,cafe,,,,True,openstreetmap
osm_6630330884,Supa Deurali Khaja Ghar,27.6886292,85.3441701,cafe,,,,True,openstreetmap
osm_6632640785,आँगन क्याफे,27.670558,85.3335939,cafe,,,,True,openstreetmap
osm_6634692885,Unknown Cafe,27.7061785,85.3123979,cafe,,,,True,openstreetmap
osm_6659807985,Unknown Cafe,27.6899912,85.3343574,cafe,,,,True,openstreetmap
osm_6712227786,Unknown Cafe,27.711069,85.3281932,cafe,,,,True,openstreetmap
osm_6762952886,Unknown Cafe,27.7365684,85.3484976,cafe,,,,True,openstreetmap
osm_6815221285,Unknown Cafe,27.7001,85.3428949,cafe,,,,True,openstreetmap
osm_6822853485,Unknown Cafe,27.7137079,85.3246322,cafe,,,,True,openstreetmap
osm_6874841987,Unknown Cafe,27.7130965,85.3421449,cafe,,,,True,openstreetmap
osm_6929921685,Unknown Cafe,27.7174556,85.3092434,cafe,,,,True,openstreetmap
osm_6959698848,Coffee Cloud Cafe,27.7061415,85.33371,cafe,,,,True,openstreetmap
osm_6992115285,Unknown Cafe,27.7240831,85.3642503,cafe,,,,True,openstreetmap
osm_6994388986,सलाद क्याफे एण्ड बार,27.7151867,85.310824,cafe,,,,True,openstreetmap
osm_7043814186,kar.ma cafe,27.713641,85.3123937,cafe,,,,True,openstreetmap
osm_7052554985,Unknown Cafe,27.721969,85.3618774,cafe,,,,True,openstreetmap
osm_7070908087,Unknown Cafe,27.6965573,85.3377258,cafe,,,,True,openstreetmap
osm_7097644685,Unknown Cafe,27.714099,85.3484505,cafe,,,,True,openstreetmap
osm_7097644885,Unknown Cafe,27.7140182,85.3485477,cafe,,,,True,openstreetmap
osm_7101308686,Unknown Cafe,27.723202,85.3503368,cafe,,,,True,openstreetmap
osm_7156068085,खासी बाख्राको घर,27.6682338,85.3527058,cafe,,,,True,openstreetmap
osm_7173981085,Unknown Cafe,27.7105279,85.3111142,cafe,,,,True,openstreetmap
osm_7180984286,chill out,27.7104207,85.3125253,cafe,,,,True,openstreetmap
osm_7183426485,traditional food cafe,27.7101515,85.3135879,cafe,,,,True,openstreetmap
osm_7183571785,Unknown Cafe,27.7094833,85.3146227,cafe,,,,True,openstreetmap
osm_7187648185,Ramailo Chautari Cafe,27.7225539,85.3359433,cafe,,,,True,openstreetmap
osm_7195134285,Unknown Cafe,27.7195553,85.3029955,cafe,,,,True,openstreetmap
osm_7199588986,Unknown Cafe,27.7197297,85.3172123,cafe,,,,True,openstreetmap
osm_7247557686,Unknown Cafe,27.7208866,85.3205881,cafe,,,,True,openstreetmap
osm_7281739804,रोम क्याफे,27.6779786,85.3469937,cafe,,,,True,openstreetmap
osm_7309368485,Unknown Cafe,27.745874,85.3474071,cafe,,,,True,openstreetmap
osm_7632617385,AB Coffee Point,27.7249649,85.341577,cafe,,,,True,openstreetmap
osm_7757295486,Unknown Cafe,27.6854763,85.3301731,cafe,,,,True,openstreetmap
osm_7816973945,HImalayan Java Baluwatar,27.726702,85.3307019,cafe,,,,True,openstreetmap
osm_8173061217,Unknown Cafe,27.6837535,85.3857514,cafe,,,,True,openstreetmap
osm_8187158292,Bake & Brew cafe,27.675027,85.3600452,cafe,,,,True,openstreetmap
osm_8187610031,उग्रचण्डी क्याफे,27.6717146,85.3509083,cafe,,,,True,openstreetmap
osm_8274082617,Unknown Cafe,27.719246,85.3514875,cafe,,,,True,openstreetmap
osm_8280724817,Unknown Cafe,27.6849755,85.3074165,cafe,,,,True,openstreetmap
osm_8296199093,Ajju Cafe,27.7082024,85.3382137,cafe,,,,True,openstreetmap
osm_8296660017,Unknown Cafe,27.7385277,85.3355572,cafe,,,,True,openstreetmap
osm_8344526517,Unknown Cafe,27.6547516,85.2283346,cafe,,,,True,openstreetmap
osm_8349373723,Unknown Cafe,27.7441868,85.3474766,cafe,,,,True,openstreetmap
osm_8371901618,Arabica Coffee,27.7209374,85.3621615,cafe,,,,True,openstreetmap
osm_8571521518,Unknown Cafe,27.7073238,85.2821474,cafe,,,,True,openstreetmap
osm_8663737917,Unknown Cafe,27.7058388,85.312433,cafe,,,,True,openstreetmap
osm_8695713370,रोयल क्याफे र फास्ट फूड,27.7161614,85.3131819,cafe,,,,True,openstreetmap
osm_8695713380,एस.के. क्याफे र तन्दुरी हाउस,27.7159752,85.3128841,cafe,,,,True,openstreetmap
osm_8696013273,शेर्पा होटल एण्ड फास्ट फूड,27.7138978,85.3131611,cafe,,,,True,openstreetmap
osm_8696242385,Hamro Cafe,27.7119536,85.3121862,cafe,,,,True,openstreetmap
osm_8696242395,Chikusa Coffee Shop,27.71182,85.3121664,cafe,,,,True,openstreetmap
osm_8696242410,Beautiful Private Chef,27.7114274,85.3120881,cafe,,,,True,openstreetmap
osm_8696269324,Taste Of Home,27.7108238,85.3122729,cafe,,,,True,openstreetmap
osm_8696330979,Cha Cha Cafe,27.7132641,85.3122829,cafe,,,,True,openstreetmap
osm_8696390254,Cafe Cacao,27.7174604,85.311815,cafe,,,,True,openstreetmap
osm_8696390272,राइज एण्ड ग्राइन्ड अर्गानिक कफी शप,27.7114934,85.308897,cafe,,,,True,openstreetmap
osm_8696410316,Aambo Momo,27.7105902,85.3108615,cafe,,,,True,openstreetmap
osm_8696832028,मार्कहम बिस्ट्रो,27.7122466,85.3107287,cafe,,,,True,openstreetmap
osm_8696860184,थमेल भिल्ला होटल र जात्रा क्याफे एण्ड बार,27.7138007,85.3102607,cafe,,,,True,openstreetmap
osm_8696860193,Green Organic Cafe And Farmers Bar,27.7140382,85.3098424,cafe,,,,True,openstreetmap
osm_8696865571,Niranjana Tea Coffee And Handicrafts Pvt Ltd,27.7132048,85.3103112,cafe,,,,True,openstreetmap
osm_8696865576,Jatra Cafe And Bar,27.7135878,85.3101557,cafe,,,,True,openstreetmap
osm_8696865584,ब्रेजेल क्याफे एण्ड बार,27.713376,85.3102119,cafe,,,,True,openstreetmap
osm_8697027792,Trisara,27.714937,85.3102559,cafe,,,,True,openstreetmap
osm_8697027801,बोन एपेटिट क्याफे र रेस्टुरेन्ट,27.7149364,85.3104391,cafe,,,,True,openstreetmap
osm_8697027805,La Dolace Vita,27.7150535,85.3102734,cafe,,,,True,openstreetmap
osm_8697036336,Bon Appetit Cafe And Restaurant,27.7149872,85.3102196,cafe,,,,True,openstreetmap
osm_8697036342,Cafe De Fire,27.714776,85.3103717,cafe,,,,True,openstreetmap
osm_8699923414,गुड टाइम्स क्याफे र लाउन्ज,27.7144373,85.3118688,cafe,,,,True,openstreetmap
osm_8699925681,थमेल कट्टी रोल एण्ड बर्गर सेन्टि,27.71461,85.3112675,cafe,,,,True,openstreetmap
osm_8699925682,पम्परनिकेल बेकरी (थमेल),27.7148283,85.3109232,cafe,,,,True,openstreetmap
osm_8699925701,Mount Strada Coffee,27.7146534,85.3107878,cafe,,,,True,openstreetmap
osm_8699927562,Tribal Cafe,27.7144737,85.3106975,cafe,,,,True,openstreetmap
osm_8699927581,Thamel Sekuwa Corner And Bar,27.7141818,85.3109039,cafe,,,,True,openstreetmap
osm_8699927587,Thamel Burger,27.7142966,85.310711,cafe,,,,True,openstreetmap
osm_8699927598,स्यान्डविच प्वाइन्ट सेन्टर,27.7138238,85.311258,cafe,,,,True,openstreetmap
osm_8699927607,Lahana Food Station,27.7138422,85.3113628,cafe,,,,True,openstreetmap
osm_8699943021,एस्प्रेसोलाब कफी,27.7151037,85.3119459,cafe,,,,True,openstreetmap
osm_8699943045,Daami,27.7150391,85.311697,cafe,,,,True,openstreetmap
osm_8832175850,Hello Sister Cafe,27.6825688,85.286113,cafe,,,,True,openstreetmap
osm_8832175851,Tea shop,27.682494,85.2870233,cafe,,,,True,openstreetmap
osm_8832648317,Cafe MAA,27.6889867,85.2865889,cafe,,,,True,openstreetmap
osm_9215936217,खुशी कफी हाउस (राम मन्दिर मार्ग),27.7049723,85.3416027,cafe,,,,True,openstreetmap
osm_9395978517,हिमालय जाभा कफी,27.6575383,85.3262045,cafe,,,,True,openstreetmap
osm_9399500417,Unknown Cafe,27.7244291,85.3623216,cafe,,,,True,openstreetmap
osm_9401668317,Unknown Cafe,27.7144997,85.349805,cafe,,,,True,openstreetmap
osm_9401668324,Unknown Cafe,27.7134542,85.3427669,cafe,,,,True,openstreetmap
osm_9401697620,Special coffee shop and khaja Ghar,27.6741991,85.3663319,cafe,,,,True,openstreetmap
osm_9407252418,Unknown Cafe,27.7304387,85.336393,cafe,,,,True,openstreetmap
osm_9407291223,शितल गार्डेन क्याफे,27.73039,85.3353527,cafe,,,,True,openstreetmap
osm_9407296918,Unknown Cafe,27.7177129,85.3284511,cafe,,,,True,openstreetmap
osm_9407484722,Himalayan Java Coffee,27.710216,85.3219827,cafe,,,,True,openstreetmap
osm_9407485121,Chiya Junction,27.6866117,85.3351016,cafe,,,,True,openstreetmap
osm_9422552317,Nepa Tea,27.7180871,85.3402779,cafe,,,,True,openstreetmap
osm_9425116518,चिया सिया,27.7176702,85.3270375,cafe,,,,True,openstreetmap
osm_9450088718,The Biryani House & Cafe,27.71325,85.3422883,cafe,,,,True,openstreetmap
osm_9450093517,Fresh Bite Cafe,27.7092816,85.3248981,cafe,,,,True,openstreetmap
osm_9518537245,KTM Bubble Tea,27.7277282,85.3423011,cafe,,,,True,openstreetmap
osm_9521404017,Unknown Cafe,27.7176564,85.3277502,cafe,,,,True,openstreetmap
osm_9523223618,The B2 Cafe,27.7252624,85.3421965,cafe,,,,True,openstreetmap
osm_9523229320,Bubble Tea Station,27.7243482,85.3399528,cafe,,,,True,openstreetmap
osm_9523235117,Friends cafe,27.7228043,85.3386506,cafe,,,,True,openstreetmap
osm_9523235420,Flames Restro cafe,27.7334187,85.3456452,cafe,,,,True,openstreetmap
osm_9524308317,Mummy's Cafe,27.72917,85.326511,cafe,,,,True,openstreetmap
osm_9524309219,Unknown Cafe,27.7280504,85.3243611,cafe,,,,True,openstreetmap
osm_9524311417,Unknown Cafe,27.7271204,85.3237404,cafe,,,,True,openstreetmap
osm_9524312617,Unknown Cafe,27.7262151,85.3230798,cafe,,,,True,openstreetmap
osm_9524328117,Embassy,27.7277227,85.3239607,cafe,,,,True,openstreetmap
osm_9524339818,रेडमड क्याफे,27.7276225,85.3238918,cafe,,,,True,openstreetmap
osm_9525343713,Lil Bites,27.7241795,85.3398409,cafe,,,,True,openstreetmap
osm_9526032518,Chiya bhatea,27.7180789,85.3485083,cafe,,,,True,openstreetmap
osm_9526050320,Ananda khaja ghar,27.7386563,85.326679,cafe,,,,True,openstreetmap
osm_9526052617,Maya Pub,27.738297,85.3259847,cafe,,,,True,openstreetmap
osm_9526081918,Royal Cafe Station,27.7367555,85.3236336,cafe,,,,True,openstreetmap
osm_9526103419,Global cafe,27.734753,85.3170962,cafe,,,,True,openstreetmap
osm_9526105818,Cafe Zen,27.7183047,85.3470401,cafe,,,,True,openstreetmap
osm_9526108918,वी२ क्याफे,27.7186321,85.3494023,cafe,,,,True,openstreetmap
osm_9526113017,काठमाडौं खाद्य क्याफे,27.7182541,85.3489604,cafe,,,,True,openstreetmap
osm_9528550019,Thali cafe,27.7415283,85.330287,cafe,,,,True,openstreetmap
osm_9528550517,Pratistha cafe,27.7414592,85.330177,cafe,,,,True,openstreetmap
osm_9528648020,Kaffi and bites,27.7393894,85.3256881,cafe,,,,True,openstreetmap
osm_9528660618,The Radung cafe,27.7364672,85.3175866,cafe,,,,True,openstreetmap
osm_9528660724,Royal Himalayan coffee,27.719996,85.3457864,cafe,,,,True,openstreetmap
osm_9528660918,स्काई क्याफे,27.7353659,85.3170864,cafe,,,,True,openstreetmap
osm_9528661121,Crown cafe,27.7187863,85.3464301,cafe,,,,True,openstreetmap
osm_9528661717,Zoom cafe,27.7197255,85.3460621,cafe,,,,True,openstreetmap
osm_9528673818,क्याफे डे पासज,27.7183356,85.3464888,cafe,,,,True,openstreetmap
osm_9529542956,Hamro Cafe,27.6682191,85.3330537,cafe,,,,True,openstreetmap
osm_9529597419,Royal Himalayan Cofee,27.7310392,85.3289403,cafe,,,,True,openstreetmap
osm_9529707040,Hello Cafe,27.7056969,85.3222178,cafe,,,,True,openstreetmap
osm_9529746960,Supreme Cafe,27.7020594,85.3107584,cafe,,,,True,openstreetmap
osm_9529746982,RD's Cafe,27.7025705,85.3108261,cafe,,,,True,openstreetmap
osm_9538934418,Unknown Cafe,27.7300842,85.3254217,cafe,,,,True,openstreetmap
osm_9538934920,Unknown Cafe,27.7287819,85.3259752,cafe,,,,True,openstreetmap
osm_9555718817,मिस यू पानिपुरी,27.6700069,85.2819373,cafe,,,,True,openstreetmap
osm_9574690216,Pabitra and pratik panipuri,27.6699799,85.2793505,cafe,,,,True,openstreetmap
osm_9579981720,D Aroma Fast Food,27.671398,85.2764486,cafe,,,,True,openstreetmap
osm_9579983642,Mahalaxmi Cafe,27.6712514,85.2773099,cafe,,,,True,openstreetmap
osm_9580055139,मामाजीको खाजा घर,27.669985,85.281985,cafe,,,,True,openstreetmap
osm_9580063078,सुदूरपश्चिम खाजा र खाना घर,27.6699392,85.2815956,cafe,,,,True,openstreetmap
osm_9580064045,Stick food  cafe,27.6721467,85.2797922,cafe,,,,True,openstreetmap
osm_9580066003,Shankapur Newari Khaja Ghar,27.6718811,85.2796205,cafe,,,,True,openstreetmap
osm_9582390190,Quality  veg and bakery cafe,27.669888,85.2819644,cafe,,,,True,openstreetmap
osm_9582419893,फल्चा food station,27.6700744,85.2815227,cafe,,,,True,openstreetmap
osm_9582461935,Quick bites cafe,27.6691054,85.2825027,cafe,,,,True,openstreetmap
osm_9598828917,Unknown Cafe,27.6781041,85.3079012,cafe,,,,True,openstreetmap
osm_9599178617,Unknown Cafe,27.7027,85.3422324,cafe,,,,True,openstreetmap
osm_9613032437,Himalayan Java,27.7371636,85.3338104,cafe,,,,True,openstreetmap
osm_9614642352,Araniko Cafe,27.6540984,85.3920175,cafe,,,,True,openstreetmap
osm_9625959605,New K.S.M.S. Fast Food And Cafe,27.6663142,85.2656169,cafe,,,,True,openstreetmap
osm_9626222309,Dawn cafe,27.668079,85.2786984,cafe,,,,True,openstreetmap
osm_9626250287,Green house cafeteria,27.6657684,85.2735829,cafe,,,,True,openstreetmap
osm_9626257242,Upendra tea shop,27.6679814,85.2756282,cafe,,,,True,openstreetmap
osm_9634995582,We'll come hira coffee shop,27.6657668,85.29105,cafe,,,,True,openstreetmap
osm_9635024428,Miss you Pani puri,27.6659129,85.2921106,cafe,,,,True,openstreetmap
osm_9642585502,Sanjib hotel,27.6553063,85.2794818,cafe,,,,True,openstreetmap
osm_9642604692,UB food corner,27.6551886,85.2768355,cafe,,,,True,openstreetmap
osm_9642608565,Dhading khaja ghar,27.651835,85.286215,cafe,,,,True,openstreetmap
osm_9642627382,Centerpoint,27.6500481,85.2812923,cafe,,,,True,openstreetmap
osm_9642767690,Aarohi Fast Food And Cafe,27.661499,85.2782202,cafe,,,,True,openstreetmap
osm_9645212013,Bake 8,27.6766095,85.2760662,cafe,,,,True,openstreetmap
osm_9648125149,Pipal Cafe,27.6751497,85.2769344,cafe,,,,True,openstreetmap
osm_9648156186,Classic sports and bar,27.6741837,85.2802914,cafe,,,,True,openstreetmap
osm_9648159013,Samba's momo,27.6740529,85.2801451,cafe,,,,True,openstreetmap
osm_9655500800,Flame cafe,27.6825547,85.278853,cafe,,,,True,openstreetmap
osm_9655516768,Newari Khaja and Cafe,27.6905035,85.2772537,cafe,,,,True,openstreetmap
osm_9655535678,Dawn To Dusk Fast Food and bakery,27.6863063,85.2773108,cafe,,,,True,openstreetmap
osm_9657754394,New B.S.S.Sweet shop,27.6767076,85.2809059,cafe,,,,True,openstreetmap
osm_9657770374,Tea and hub,27.6814167,85.2794291,cafe,,,,True,openstreetmap
osm_9657791019,China Chautari Cafe,27.6758606,85.2811568,cafe,,,,True,openstreetmap
osm_9657792042,Khotang khaja ghar,27.6808173,85.281465,cafe,,,,True,openstreetmap
osm_9662451189,Cafeteria khaja ghar,27.6798644,85.2845156,cafe,,,,True,openstreetmap
osm_9662467560,Education canteen,27.6828569,85.2835373,cafe,,,,True,openstreetmap
osm_9662468504,Aries canteen,27.6813543,85.2852353,cafe,,,,True,openstreetmap
osm_9662481634,Arnee cafe,27.680577,85.2792905,cafe,,,,True,openstreetmap
osm_9662482712,Kirtipur Cafeteria,27.6799577,85.2845558,cafe,,,,True,openstreetmap
osm_9662537965,Newa Café,27.6744488,85.2769286,cafe,,,,True,openstreetmap
osm_9668230217,मिलेनियम चिया र मसलाको पसल,27.7123968,85.3109214,cafe,,,,True,openstreetmap
osm_9671812899,Mitho Khaja Ghar,27.7278825,85.3423333,cafe,,,,True,openstreetmap
osm_9702816493,Bukeba Cafe,27.683493,85.3128823,cafe,,,,True,openstreetmap
osm_9704578112,Billiards Cafe,27.6851595,85.2508755,cafe,,,,True,openstreetmap
osm_9708671382,Dd Bahini Khaja Ghar,27.6901332,85.2778513,cafe,,,,True,openstreetmap
osm_9708687131,Crossway,27.6734099,85.2647137,cafe,,,,True,openstreetmap
osm_9708690736,हाम्रो रेस्टुरेन्ट र क्याफे,27.6810272,85.2792886,cafe,,,,True,openstreetmap
osm_9708691480,Khana And Khaja Ghar,27.6907237,85.2771329,cafe,,,,True,openstreetmap
osm_9708698914,Sewaro Khaja Ghar,27.6901953,85.2788016,cafe,,,,True,openstreetmap
osm_9708707184,Suwash Khaja Ghat,27.6903004,85.2803175,cafe,,,,True,openstreetmap
osm_9708710161,Kirtipur Newari Khaja  Ghar,27.6808319,85.279069,cafe,,,,True,openstreetmap
osm_9708715243,Dhuna Tapari momo,27.6885992,85.2777468,cafe,,,,True,openstreetmap
osm_9708720317,Chapate Panipuri Shop,27.6801644,85.2795927,cafe,,,,True,openstreetmap
osm_9708735262,New Fast food Khaja Ghar,27.6882481,85.2774168,cafe,,,,True,openstreetmap
osm_9708736818,Newari Khaja And Cafe,27.6905551,85.2774243,cafe,,,,True,openstreetmap
osm_9719766410,Rashna Store,27.6783674,85.2753664,cafe,,,,True,openstreetmap
osm_9719770043,Sonu Khaja Ghar,27.6728997,85.2740391,cafe,,,,True,openstreetmap
osm_9719783077,Deepa Khaja Ghar,27.6723051,85.2734639,cafe,,,,True,openstreetmap
osm_9719784869,Momo and Newari khaja ghar,27.672008,85.2726744,cafe,,,,True,openstreetmap
osm_9719793233,Laxmi Bahadur Tea Shop,27.6791976,85.2766063,cafe,,,,True,openstreetmap
osm_9720303340,हिप हप पानिपुरी,27.6761068,85.279402,cafe,,,,True,openstreetmap
osm_9722112517,Unknown Cafe,27.7308836,85.363403,cafe,,,,True,openstreetmap
osm_9722112917,Unknown Cafe,27.7312652,85.3654296,cafe,,,,True,openstreetmap
osm_9722113223,Unknown Cafe,27.7344926,85.3704571,cafe,,,,True,openstreetmap
osm_9722231334,Chwasaa chussai food,27.6639731,85.2537447,cafe,,,,True,openstreetmap
osm_9722237631,Falguni momo house,27.6669519,85.2666457,cafe,,,,True,openstreetmap
osm_9722237633,Sabita kirana tadha chiya pasal,27.6607649,85.2593319,cafe,,,,True,openstreetmap
osm_9722253664,Gulmeli khaja and momo house,27.6687304,85.2689513,cafe,,,,True,openstreetmap
osm_9722257763,NIS Cafe,27.666944,85.2664196,cafe,,,,True,openstreetmap
osm_9722262263,S.S. khaja ghar,27.661309,85.2588287,cafe,,,,True,openstreetmap
osm_9722270162,Bimala Tamang khaja ghar,27.663927,85.2650934,cafe,,,,True,openstreetmap
osm_9722285290,Mantri khaja ghar and pul house,27.6630855,85.2580846,cafe,,,,True,openstreetmap
osm_9722286174,Godam khaja ghar,27.6627986,85.2540968,cafe,,,,True,openstreetmap
osm_9724408515,Jalbinayak Newari Khaja Ghar,27.6583442,85.2912746,cafe,,,,True,openstreetmap
osm_9724483042,Rina khaja ghar,27.6595643,85.2692443,cafe,,,,True,openstreetmap
osm_9724495030,R.N. Bjojanalaya,27.658156,85.2912926,cafe,,,,True,openstreetmap
osm_9724495032,Newari Khaja Ghar,27.6520933,85.2865816,cafe,,,,True,openstreetmap
osm_9724495241,म्युजिक क्याफे र खाजा घर,27.6626546,85.2882341,cafe,,,,True,openstreetmap
osm_9724495243,बिक्रम दाइको नेवारी खजा र सेकुवा,27.6575669,85.2912628,cafe,,,,True,openstreetmap
osm_9724495244,Dhading khaja ghar and bhojnalaya,27.6518109,85.2860446,cafe,,,,True,openstreetmap
osm_9724496268,क्याफे दी चोवार,27.6620712,85.2877116,cafe,,,,True,openstreetmap
osm_9724496269,Jalbinayak Newari Khaja Ghar,27.6572229,85.2909456,cafe,,,,True,openstreetmap
osm_9724520641,Newari Khaja Ghar And Snowkhar John,27.6628034,85.2882426,cafe,,,,True,openstreetmap
osm_9724529518,Binda Dd Ko Khaja Ghar,27.6591227,85.2928512,cafe,,,,True,openstreetmap
osm_9791809061,Sulav Hotel,27.6773371,85.2748319,cafe,,,,True,openstreetmap
osm_9791809077,Friendly Beans,27.6754253,85.2812058,cafe,,,,True,openstreetmap
osm_9791809088,New Puja Sweets,27.6749727,85.2808871,cafe,,,,True,openstreetmap
osm_9821439717,Unknown Cafe,27.6893593,85.3328078,cafe,,,,True,openstreetmap
osm_9867934018,Chiya Chuskee,27.7301638,85.3480874,cafe,,,,True,openstreetmap
osm_9871702117,Unknown Cafe,27.6830168,85.3863462,cafe,,,,True,openstreetmap
osm_9882548417,वन2 वन क्याफे,27.6584308,85.317097,cafe,,,,True,openstreetmap
osm_9899585339,Cafe Mozart,27.6819011,85.3109421,cafe,,,,True,openstreetmap
osm_9899586960,योक टेक,27.6713713,85.3073888,cafe,,,,True,openstreetmap
osm_9899595377,क्याफे कुचिनो,27.6784166,85.3132541,cafe,,,,True,openstreetmap
osm_9899595481,Jalpa Coffee Club,27.6815496,85.3106779,cafe,,,,True,openstreetmap
osm_9899619783,Himalayan Java Coffee,27.6790775,85.3100067,cafe,,,,True,openstreetmap
osm_9899619786,next cafe,27.6794534,85.3101079,cafe,,,,True,openstreetmap
osm_9913978537,Three by Four Cafe and Bar,27.6830964,85.3067438,cafe,,,,True,openstreetmap
osm_9914348079,उपनगर क्याफे एण्ड इन,27.6846866,85.3126051,cafe,,,,True,openstreetmap
osm_9914381746,Ghaite Tea and Cafe,27.6698348,85.3100013,cafe,,,,True,openstreetmap
osm_9916636671,Best Food Cafe,27.7066652,85.3229644,cafe,,,,True,openstreetmap
osm_9916683307,Sahara Tandoori Cafe,27.7068451,85.3227269,cafe,,,,True,openstreetmap
osm_9916683313,Chaudary Juice Bhandar,27.7066254,85.3228131,cafe,,,,True,openstreetmap
osm_9916725526,Jaiswal Juice Bhandar,27.7000805,85.3218594,cafe,,,,True,openstreetmap
osm_9926040035,Big Bell Sweets And Snacks Pvt.Ltd,27.7079631,85.3196928,cafe,,,,True,openstreetmap
osm_9926729709,The Kwality Food Cafe,27.6931611,85.3149591,cafe,,,,True,openstreetmap
osm_9926734921,युनिटी फूड क्याफे,27.6935868,85.3146088,cafe,,,,True,openstreetmap
osm_9928566192,Bluebird Cafe,27.6913179,85.3163433,cafe,,,,True,openstreetmap
osm_9928590109,Suprim Cafe Canteen,27.6999548,85.3130766,cafe,,,,True,openstreetmap
osm_9929272081,Mag Cafe,27.6788715,85.3099,cafe,,,,True,openstreetmap
osm_9929311126,Shubham Khaja ghar,27.6861348,85.3069966,cafe,,,,True,openstreetmap
osm_9933906817,Red Mud Coffee,27.7166208,85.3545051,cafe,,,,True,openstreetmap
osm_9933907021,Stupa Tea,27.717834,85.3616274,cafe,,,,True,openstreetmap
osm_9933907125,Meraki,27.7202241,85.3595381,cafe,,,,True,openstreetmap
osm_9942141117,Unknown Cafe,27.6730332,85.3243908,cafe,,,,True,openstreetmap
osm_9942157117,क्याफे समया बाजी,27.6735199,85.3263386,cafe,,,,True,openstreetmap
osm_9942161219,क्याफे डे पाटन,27.6731804,85.3240636,cafe,,,,True,openstreetmap
osm_9942161221,Unknown Cafe,27.6731428,85.3239728,cafe,,,,True,openstreetmap
osm_9942220017,Unknown Cafe,27.6707335,85.3268399,cafe,,,,True,openstreetmap
osm_9942243723,Unknown Cafe,27.6762505,85.3207525,cafe,,,,True,openstreetmap
osm_9942248918,Unknown Cafe,27.6761765,85.3254045,cafe,,,,True,openstreetmap
osm_9942249117,Unknown Cafe,27.6749148,85.3247483,cafe,,,,True,openstreetmap
osm_9942249121,Unknown Cafe,27.676629,85.3264339,cafe,,,,True,openstreetmap
osm_9942287617,Unknown Cafe,27.6755958,85.3208663,cafe,,,,True,openstreetmap
osm_9942584617,Chiya Ghar,27.6729761,85.3244552,cafe,,,,True,openstreetmap
osm_9942584618,Boba & Coco,27.6744017,85.3243115,cafe,,,,True,openstreetmap
osm_9942584622,Paal,27.6760621,85.3200337,cafe,,,,True,openstreetmap
osm_9942584919,De Karma Cafe,27.6737982,85.3242457,cafe,,,,True,openstreetmap
osm_9942585122,Patan Lassi Station and Tea Coffee,27.6774369,85.3213986,cafe,,,,True,openstreetmap
osm_9942585125,Jijivisha Cafe & Restro,27.6756513,85.32073,cafe,,,,True,openstreetmap
osm_9942585520,Pukucha Cafe,27.6754836,85.3210118,cafe,,,,True,openstreetmap
osm_9943980220,Unknown Cafe,27.6705298,85.3267363,cafe,,,,True,openstreetmap
osm_9944039921,Unknown Cafe,27.6723462,85.3235603,cafe,,,,True,openstreetmap
osm_9944040122,Unknown Cafe,27.6731961,85.3236419,cafe,,,,True,openstreetmap
osm_9944040125,Unknown Cafe,27.672269,85.3236938,cafe,,,,True,openstreetmap
osm_9944040222,नेवा नासा ज्वाला,27.6730519,85.3236155,cafe,,,,True,openstreetmap
osm_9944040223,Unknown Cafe,27.672787,85.3234687,cafe,,,,True,openstreetmap
osm_9944040224,Unknown Cafe,27.672352,85.3235168,cafe,,,,True,openstreetmap
osm_9944077224,Unknown Cafe,27.6725041,85.3234767,cafe,,,,True,openstreetmap
osm_9944647776,Happy Panda Tea and Snacks,27.6730507,85.3078213,cafe,,,,True,openstreetmap
osm_9944684327,खुसी बर्गर हाउस,27.6710672,85.3079903,cafe,,,,True,openstreetmap
osm_9946815888,फ्युजन फूड क्याफे,27.6863878,85.3132407,cafe,,,,True,openstreetmap
osm_9947386219,Creeper World,27.7140061,85.3535473,cafe,,,,True,openstreetmap
osm_9947732917,Unknown Cafe,27.7140775,85.3123143,cafe,,,,True,openstreetmap
osm_9950476919,Basana Cafe & Bar,27.7181501,85.3191252,cafe,,,,True,openstreetmap
osm_9950480117,चिया Park,27.7118624,85.3540588,cafe,,,,True,openstreetmap
osm_9956153379,टिकान मोमो र क्याफे सेन्टर,27.6756155,85.3519291,cafe,,,,True,openstreetmap
osm_9956505921,Phileo Cafe,27.7018005,85.3217316,cafe,,,,True,openstreetmap
osm_9958455123,सिटी भ्यू क्याफे,27.6834052,85.3119197,cafe,,,,True,openstreetmap
osm_9967127035,पोर्ट ओबेलो क्याफे हाउस,27.6770791,85.3462073,cafe,,,,True,openstreetmap
osm_9969194225,Diamond Cafe,27.6765791,85.346606,cafe,,,,True,openstreetmap
osm_9969194259,Cafe D TAJ,27.6760147,85.3457035,cafe,,,,True,openstreetmap
osm_9969194282,गरिमा क्याफे,27.675408,85.3448445,cafe,,,,True,openstreetmap
osm_9969216601,CBC Cafe,27.6729063,85.3597245,cafe,,,,True,openstreetmap
osm_9993276366,Manohara Indoor Cafe,27.6712006,85.3563435,cafe,,,,True,openstreetmap
osm_9999286833,ताशी डेली क्याफे,27.6689081,85.3529591,cafe,,,,True,openstreetmap
osm_9999286851,Bakery And Coffee,27.6698602,85.352708,cafe,,,,True,openstreetmap
osm_9999286867,Pizza Cafe With Gaming House,27.6702623,85.3528772,cafe,,,,True,openstreetmap
osm_9999295257,ब्रदर्स  वुड  क्याफे,27.6701631,85.3528084,cafe,,,,True,openstreetmap
osm_9999414282,The Woodys Cafe,27.6696839,85.3547832,cafe,,,,True,openstreetmap
osm_10004776887,8 किशोर क्याफे,27.6690092,85.3494937,cafe,,,,True,openstreetmap
osm_10004776907,ताहारो क्याफे,27.6744633,85.3526165,cafe,,,,True,openstreetmap
osm_10004786529,जे. के. क्याफे,27.6700281,85.3501531,cafe,,,,True,openstreetmap
osm_10005438010,गुरु क्याफे,27.7369224,85.3193955,cafe,,,,True,openstreetmap
osm_10007291667,R .J cafe,27.7391083,85.3165312,cafe,,,,True,openstreetmap
osm_10010484029,Cafe Tree Netra,27.7369324,85.3227653,cafe,,,,True,openstreetmap
osm_10010484033,Green City Cafe,27.7370038,85.3228965,cafe,,,,True,openstreetmap
osm_10011219675,Snooker Cafe,27.7354999,85.3076783,cafe,,,,True,openstreetmap
osm_10011697901,Shrijana Special Chiya Pasal,27.7464696,85.3261832,cafe,,,,True,openstreetmap
osm_10011697915,3 Star Coffee and Crunch,27.7463759,85.3270258,cafe,,,,True,openstreetmap
osm_10011753420,Kitli Chiya,27.7462637,85.3271158,cafe,,,,True,openstreetmap
osm_10011753436,Bubble Tea,27.7452831,85.3290593,cafe,,,,True,openstreetmap
osm_10011926516,Cafe Mirmire,27.7421854,85.3292435,cafe,,,,True,openstreetmap
osm_10011926540,Yellow Cafe,27.7433556,85.3299225,cafe,,,,True,openstreetmap
osm_10013318128,Utpala Cafe,27.7246357,85.3622798,cafe,,,,True,openstreetmap
osm_10013318519,Karma Cafe,27.7242888,85.362194,cafe,,,,True,openstreetmap
osm_10013692755,Kaka and vatij Cafe,27.7376017,85.316879,cafe,,,,True,openstreetmap
osm_10013827817,Unknown Cafe,27.7435321,85.3156918,cafe,,,,True,openstreetmap
osm_10015229645,Chiya Coffee Cafe,27.7373331,85.3117172,cafe,,,,True,openstreetmap
osm_10015238393,jammys bubble tea,27.7381586,85.3140083,cafe,,,,True,openstreetmap
osm_10015764417,Western Foods Bakery and Cafe,27.7471117,85.3155397,cafe,,,,True,openstreetmap
osm_10015911109,costa coffee,27.6882997,85.3684728,cafe,,,,True,openstreetmap
osm_10017276534,Cups,27.7405887,85.3262692,cafe,,,,True,openstreetmap
osm_10017278898,Thali Cafe,27.7418112,85.3307291,cafe,,,,True,openstreetmap
osm_10017280906,Mountainbrew Coffee Academy,27.7372436,85.3162895,cafe,,,,True,openstreetmap
osm_10024851083,Roadside Cafe,27.6858625,85.3447406,cafe,,,,True,openstreetmap
osm_10026882908,Ramechap Khana Khaja And Momo Ghar,27.6747824,85.3715855,cafe,,,,True,openstreetmap
osm_10035511144,बरिस्त,27.7354065,85.3166593,cafe,,,,True,openstreetmap
osm_10036515873,Swadilo Cafe,27.735063,85.3111191,cafe,,,,True,openstreetmap
osm_10038480607,तहरा क्याफे,27.7395291,85.31616,cafe,,,,True,openstreetmap
osm_10048565004,5 Flavours Puchka House and Cafe,27.6870488,85.3660511,cafe,,,,True,openstreetmap
osm_10048565005,Bud's Cafe,27.6870644,85.3660685,cafe,,,,True,openstreetmap
osm_10049098917,Hamro Khaja Ghar,27.6723913,85.3648114,cafe,,,,True,openstreetmap
osm_10049098919,Sangam Khaja Ghar,27.6723446,85.364831,cafe,,,,True,openstreetmap
osm_10049098934,Unknown Cafe,27.6724842,85.3647727,cafe,,,,True,openstreetmap
osm_10049098936,Jhol Momo,27.6734967,85.3647123,cafe,,,,True,openstreetmap
osm_10049306624,Tea Time Cafe,27.6820774,85.3794082,cafe,,,,True,openstreetmap
osm_10049362160,Michael Momo,27.6757329,85.3977403,cafe,,,,True,openstreetmap
osm_10049362166,Hardik 2 Khaja Ghar,27.6760276,85.3978718,cafe,,,,True,openstreetmap
osm_10049362169,Satkar Food Land,27.6761743,85.3979181,cafe,,,,True,openstreetmap
osm_10050457883,Unknown Cafe,27.6785413,85.398716,cafe,,,,True,openstreetmap
osm_10050668230,Coffee Station,27.6718882,85.3879077,cafe,,,,True,openstreetmap
osm_10050716135,Puspanjali Top Momo Centre,27.6651796,85.36672,cafe,,,,True,openstreetmap
osm_10050716152,Shrestha Food & Cafe,27.6651059,85.3670834,cafe,,,,True,openstreetmap
osm_10050716156,S & S Food Corner,27.6650216,85.3671759,cafe,,,,True,openstreetmap
osm_10050716166,Unknown Cafe,27.6650548,85.3673878,cafe,,,,True,openstreetmap
osm_10050716182,Ba Ko Chiya Pasal,27.6650705,85.3685561,cafe,,,,True,openstreetmap
osm_10050868004,Jugal Cafe,27.6895882,85.3890561,cafe,,,,True,openstreetmap
osm_10050956436,Khotangey Khajaghar Tatha Bhojanalaya,27.6798988,85.3973038,cafe,,,,True,openstreetmap
osm_10050956440,Dharaney Numbari Sekuwa Corner,27.6791565,85.3981018,cafe,,,,True,openstreetmap
osm_10050956441,Unknown Cafe,27.681084,85.3979462,cafe,,,,True,openstreetmap
osm_10051660852,Unknown Cafe,27.688656,85.3978068,cafe,,,,True,openstreetmap
osm_10051660855,Ram Daiko Khaja Ghar,27.6885289,85.3983164,cafe,,,,True,openstreetmap
osm_10052922345,Unknown Cafe,27.6746636,85.3892183,cafe,,,,True,openstreetmap
osm_10052922351,Araniko Staff Bhojanalaya,27.674369,85.3887731,cafe,,,,True,openstreetmap
osm_10053049221,Neera's Cafe,27.6742087,85.3881133,cafe,,,,True,openstreetmap
osm_10053049223,Parisama Bhojanalaya,27.6742325,85.388238,cafe,,,,True,openstreetmap
osm_10053049231,Malta Newari Khaja And Special Jhol Momo,27.674552,85.3873643,cafe,,,,True,openstreetmap
osm_10053049236,Unknown Cafe,27.6742396,85.3874085,cafe,,,,True,openstreetmap
osm_10053049238,Khaja Ghar,27.6740911,85.3874092,cafe,,,,True,openstreetmap
osm_10053049245,Newari Khaja GHar And Momo House,27.6753988,85.388185,cafe,,,,True,openstreetmap
osm_10053049249,Prem Khaja Ghar,27.6747271,85.3880066,cafe,,,,True,openstreetmap
osm_10053133633,Newari Khaja Ghar,27.6737112,85.3853725,cafe,,,,True,openstreetmap
osm_10053465370,15 Hours Cafe and Food Land,27.6804112,85.3656384,cafe,,,,True,openstreetmap
osm_10053465389,Samjhana Dairy and Coffee Shop,27.6797883,85.3647687,cafe,,,,True,openstreetmap
osm_10053803434,Lu Swa: Nasa Che,27.6774356,85.3833403,cafe,,,,True,openstreetmap
osm_10053803436,Chasi Newari Khaja Tatha Bojanalaya,27.6774938,85.3833309,cafe,,,,True,openstreetmap
osm_10053803438,Unknown Cafe,27.6778596,85.3833443,cafe,,,,True,openstreetmap
osm_10053803442,Bishal Momo And Stick Food,27.6779997,85.3833295,cafe,,,,True,openstreetmap
osm_10053803446,R And R Newari Khaja tatha Momo Centre,27.6785449,85.3833711,cafe,,,,True,openstreetmap
osm_10053842162,Trik Khaja Ghar,27.6784506,85.3862339,cafe,,,,True,openstreetmap
osm_10055069506,Ujjwal Dairy Shop,27.6755627,85.3609577,cafe,,,,True,openstreetmap
osm_10056130441,Mahim Cafe,27.6799843,85.386569,cafe,,,,True,openstreetmap
osm_10056130457,New Crystal Street Food,27.6800823,85.3861217,cafe,,,,True,openstreetmap
osm_10056130459,Madhyapur Newa Nasha: Chey,27.6799219,85.3860171,cafe,,,,True,openstreetmap
osm_10056130463,Madhyapur A. One Khaja Ghar,27.6792539,85.3858569,cafe,,,,True,openstreetmap
osm_10056130465,Bishwo Binayak Khaja Ghar,27.6810357,85.3859344,cafe,,,,True,openstreetmap
osm_10056186924,Sindhupalchowk Khaja Ghar,27.6788732,85.3833852,cafe,,,,True,openstreetmap
osm_10058752027,Madhyapur Tiffin House,27.6829083,85.3882801,cafe,,,,True,openstreetmap
osm_10058752040,NEWA: LASA,27.6829959,85.3877276,cafe,,,,True,openstreetmap
osm_10058752057,Cafe Sayto Kalo,27.6831774,85.3864134,cafe,,,,True,openstreetmap
osm_10058752058,Naya Everest Momo Centre,27.6832048,85.3864872,cafe,,,,True,openstreetmap
osm_10058752070,Bhimsen Momo Centre,27.6832591,85.386968,cafe,,,,True,openstreetmap
osm_10058752072,Unknown Cafe,27.6832638,85.387086,cafe,,,,True,openstreetmap
osm_10058989985,Unknown Cafe,27.6764522,85.3822721,cafe,,,,True,openstreetmap
osm_10059063851,Sagarmatha Khaja Ghar,27.6762966,85.3886336,cafe,,,,True,openstreetmap
osm_10059063854,Newari Khaja Ghar,27.6772723,85.3887188,cafe,,,,True,openstreetmap
osm_10059063856,Unknown Cafe,27.6775906,85.388936,cafe,,,,True,openstreetmap
osm_10059238690,Newari Khaja Ghar,27.6822906,85.3905628,cafe,,,,True,openstreetmap
osm_10059238698,New Shikhar Momo And Khaja Ghar,27.6826695,85.3894839,cafe,,,,True,openstreetmap
osm_10059957269,Micheal Momo,27.6823827,85.3830834,cafe,,,,True,openstreetmap
osm_10059965298,Basuki Newari Khaja Ghar,27.6822577,85.3824411,cafe,,,,True,openstreetmap
osm_10102562317,A One cafe,27.6996027,85.3286893,cafe,,,,True,openstreetmap
osm_10103295967,Pasang Dolmo Hotel And Khaja Ghar,27.675207,85.388006,cafe,,,,True,openstreetmap
osm_10104876563,Kavre Bhojanalaya And Coffee Shop,27.6743388,85.3889655,cafe,,,,True,openstreetmap
osm_10104876564,Unknown Cafe,27.6746695,85.3891405,cafe,,,,True,openstreetmap
osm_10104876569,Sumitra Khaja Ghar,27.6756167,85.3909872,cafe,,,,True,openstreetmap
osm_10105130597,Unknown Cafe,27.6792367,85.3906614,cafe,,,,True,openstreetmap
osm_10105130598,Unknown Cafe,27.6792384,85.3906453,cafe,,,,True,openstreetmap
osm_10105203542,Ridam Khaja Ghar,27.6776434,85.3928608,cafe,,,,True,openstreetmap
osm_10110407247,Ramesh Cafe,27.6853498,85.3877807,cafe,,,,True,openstreetmap
osm_10110783804,Freshco cafe,27.6768911,85.3982145,cafe,,,,True,openstreetmap
osm_10110783814,Urmi Coffee and Food Land,27.6775259,85.3984478,cafe,,,,True,openstreetmap
osm_10114423943,Unknown Cafe,27.6776571,85.395431,cafe,,,,True,openstreetmap
osm_10114540037,Unknown Cafe,27.6756832,85.3943397,cafe,,,,True,openstreetmap
osm_10114575537,Unknown Cafe,27.6774056,85.3969391,cafe,,,,True,openstreetmap
osm_10121388571,Indreni Stick Food Cafe,27.6836408,85.3487952,cafe,,,,True,openstreetmap
osm_10121388656,Inderni De Cafe,27.6859223,85.3449714,cafe,,,,True,openstreetmap
osm_10121388680,नदी सिभर साइड क्याफे,27.6849483,85.3435912,cafe,,,,True,openstreetmap
osm_10121388739,T-Time Cafe,27.6784275,85.3349523,cafe,,,,True,openstreetmap
osm_10121397655,Junction Cafe,27.6845321,85.3444826,cafe,,,,True,openstreetmap
osm_10121401002,Oats Cafe,27.6787678,85.3355234,cafe,,,,True,openstreetmap
osm_10121403408,Aaha Lumbini Cafe,27.6833295,85.3484231,cafe,,,,True,openstreetmap
osm_10121403413,Coctail Cafe and Restro,27.6832792,85.3482417,cafe,,,,True,openstreetmap
osm_10121408433,Hotel Band D Cafe,27.6804203,85.3416915,cafe,,,,True,openstreetmap
osm_10121417217,Bakery and Coffee Shop,27.6831947,85.3479121,cafe,,,,True,openstreetmap
osm_10121417233,Kantipur Cafe,27.6829973,85.3470072,cafe,,,,True,openstreetmap
osm_10121417272,EveryDay Food Cafe,27.6854519,85.3458742,cafe,,,,True,openstreetmap
osm_10121417309,Cafe Aalya,27.6848009,85.3455217,cafe,,,,True,openstreetmap
osm_10121424361,Metro City Cafe,27.6762787,85.3387221,cafe,,,,True,openstreetmap
osm_10121424452,New Cafe,27.6807949,85.3449721,cafe,,,,True,openstreetmap
osm_10121424465,Aaha Lumbini Cafe,27.6809019,85.3399198,cafe,,,,True,openstreetmap
osm_10121424551,Salyan Basanta Tandoori Dawa and Cafe,27.6796172,85.3468835,cafe,,,,True,openstreetmap
osm_10121523091,S Cafe,27.6830902,85.3477676,cafe,,,,True,openstreetmap
osm_10121523099,मगर दाइ को क्याफे,27.6829058,85.3470955,cafe,,,,True,openstreetmap
osm_10121523109,यु बिएंड मोमो एंड काफे,27.6843086,85.3478921,cafe,,,,True,openstreetmap
osm_10121542421,The Cosy Cafe,27.6854034,85.3456723,cafe,,,,True,openstreetmap
osm_10121542428,Brunch Cafe,27.685152,85.346015,cafe,,,,True,openstreetmap
osm_10121566034,Kingstar Food Cafe,27.6790518,85.3394111,cafe,,,,True,openstreetmap
osm_10121566060,चेमजोङ क्याफे,27.6780068,85.3362614,cafe,,,,True,openstreetmap
osm_10121598993,Chindo Cafe,27.6803835,85.3420585,cafe,,,,True,openstreetmap
osm_10121598994,महादेवस्थान क्याफे,27.6804359,85.341971,cafe,,,,True,openstreetmap
osm_10121599002,Raj Coffee Shop,27.6812043,85.3436868,cafe,,,,True,openstreetmap
osm_10121599013,Ringo S Cafe,27.6797805,85.3397379,cafe,,,,True,openstreetmap
osm_10137592127,Lotus Cafe,27.6743247,85.3720818,cafe,,,,True,openstreetmap
osm_10139104823,Lemon tree bakery cafe,27.6537027,85.3036805,cafe,,,,True,openstreetmap
osm_10147413956,बी. बी. एस. क्याफे,27.6744542,85.3414334,cafe,,,,True,openstreetmap
osm_10147413972,रितिशा र फूड क्याफे,27.6752796,85.342384,cafe,,,,True,openstreetmap
osm_10147414098,Paris Foodland And Cafe,27.6828095,85.3462384,cafe,,,,True,openstreetmap
osm_10147414122,Jhilko Fast Food Cafe,27.6797866,85.3471148,cafe,,,,True,openstreetmap
osm_10148831434,Khimu Store,27.6767064,85.3855732,cafe,,,,True,openstreetmap
osm_10148831458,Madhyapur Dairy and Coffee Shop,27.6809112,85.3860694,cafe,,,,True,openstreetmap
osm_10148831463,Vintage Tea House,27.6815175,85.3862733,cafe,,,,True,openstreetmap
osm_10186036917,Unknown Cafe,27.7475629,85.3479785,cafe,,,,True,openstreetmap
osm_10186037317,Selfie Food Cafe,27.7469311,85.347852,cafe,,,,True,openstreetmap
osm_10204324714,fyafulla,27.7214097,85.3796805,cafe,,,,True,openstreetmap
osm_10206769417,चिया कफी पसल,27.699629,85.3570947,cafe,,,,True,openstreetmap
osm_10208827818,Unknown Cafe,27.6902147,85.3679398,cafe,,,,True,openstreetmap
osm_10216528287,Vista B Coffee,27.7104389,85.3185484,cafe,,,,True,openstreetmap
osm_10227898317,Unknown Cafe,27.6943726,85.2987035,cafe,,,,True,openstreetmap
osm_10246588409,Unknown Cafe,27.7150875,85.3040672,cafe,,,,True,openstreetmap
osm_10253632939,ku,27.7233313,85.3780739,cafe,,,,True,openstreetmap
osm_10549101612,चियावाला चाबहिल,27.7170282,85.343528,cafe,,,,True,openstreetmap
osm_10567757709,Entrance Cafe,27.6807757,85.3211399,cafe,,,,True,openstreetmap
osm_10576602141,Poets´ Corner,27.6734168,85.2798256,cafe,,,,True,openstreetmap
osm_10591329467,Penthouse Rooftop Bar & Lounge,27.7129871,85.3175913,cafe,,,,True,openstreetmap
osm_10591494760,jj,27.72376,85.3755369,cafe,,,,True,openstreetmap
osm_10610495806,Unknown Cafe,27.7067246,85.3779546,cafe,,,,True,openstreetmap
osm_10611337905,Unknown Cafe,27.7108059,85.3735462,cafe,,,,True,openstreetmap
osm_10611340505,Unknown Cafe,27.7062917,85.3730802,cafe,,,,True,openstreetmap
osm_10614868205,Unknown Cafe,27.7066906,85.377531,cafe,,,,True,openstreetmap
osm_10617740410,Unknown Cafe,27.7014293,85.3791227,cafe,,,,True,openstreetmap
osm_10617740420,The Food Gallery / Mudula Mart,27.6994849,85.3834368,cafe,,,,True,openstreetmap
osm_10617742105,Unknown Cafe,27.6997466,85.3789979,cafe,,,,True,openstreetmap
osm_10629351205,Unknown Cafe,27.6960789,85.3772064,cafe,,,,True,openstreetmap
osm_10654971308,Unknown Cafe,27.6519853,85.3425363,cafe,,,,True,openstreetmap
osm_10678289306,Urban De Cafe,27.6705404,85.2799589,cafe,,,,True,openstreetmap
osm_10680582106,Nepal Tea,27.7178125,85.3448012,cafe,,,,True,openstreetmap
osm_10683118905,Ohana Cafe,27.723121,85.3591408,cafe,,,,True,openstreetmap
osm_10698637827,Unique bakery,27.6667704,85.3842144,cafe,,,,True,openstreetmap
osm_10701172477,Kafe Codes,27.688771,85.3278975,cafe,,,,True,openstreetmap
osm_10701237339,Kaffee Codes,27.6889038,85.3278908,cafe,,,,True,openstreetmap
osm_10701256279,Cake station,27.688673,85.3282727,cafe,,,,True,openstreetmap
osm_10701268272,Tea O' Clock,27.6889878,85.3283317,cafe,,,,True,openstreetmap
osm_10701278716,निन्जा रोस्ट र टोस्ट क्याफे र बेकरी,27.6895331,85.3284552,cafe,,,,True,openstreetmap
osm_10701294899,Tea o'clock,27.68906,85.3283709,cafe,,,,True,openstreetmap
osm_10701299980,अड्डा,27.6886597,85.3284571,cafe,,,,True,openstreetmap
osm_10701333067,Ninja,27.6887906,85.3282544,cafe,,,,True,openstreetmap
osm_10789652320,रवि क्याफे,27.6675478,85.344805,cafe,,,,True,openstreetmap
osm_10792985805,Unknown Cafe,27.7122511,85.3121218,cafe,,,,True,openstreetmap
osm_10826849610,Unknown Cafe,27.6930318,85.3280051,cafe,,,,True,openstreetmap
osm_10831660705,मिराणा बेकर्स र क्याफे,27.7056125,85.3297384,cafe,,,,True,openstreetmap
osm_10888676805,Unknown Cafe,27.7205031,85.3192672,cafe,,,,True,openstreetmap
osm_10888679205,Unknown Cafe,27.7262508,85.3634911,cafe,,,,True,openstreetmap
osm_10892458506,Unknown Cafe,27.7162159,85.3250332,cafe,,,,True,openstreetmap
osm_10973663605,Chiya Ghar,27.7075147,85.3231409,cafe,,,,True,openstreetmap
osm_10973663905,Himalayan Beans Java,27.7225505,85.3489534,cafe,,,,True,openstreetmap
osm_11019621907,Shenature Cafe,27.716157,85.3130675,cafe,,,,True,openstreetmap
osm_11021430905,Cafe Central,27.7278492,85.3342873,cafe,,,,True,openstreetmap
osm_11029627205,Cafe kunz,27.7256094,85.3241388,cafe,,,,True,openstreetmap
osm_11073178405,Unknown Cafe,27.6756572,85.326514,cafe,,,,True,openstreetmap
osm_11083487805,Unknown Cafe,27.6815132,85.3176079,cafe,,,,True,openstreetmap
osm_11118833318,Newa Cafe And Bar,27.7077425,85.2839162,cafe,,,,True,openstreetmap
osm_11179393640,Unknown Cafe,27.6712811,85.3264751,cafe,,,,True,openstreetmap
osm_11192795811,Chiba Cafe,27.6587548,85.3459561,cafe,,,,True,openstreetmap
osm_11224544237,Cherdung Cafe,27.7010018,85.2533147,cafe,,,,True,openstreetmap
osm_11252223837,Unknown Cafe,27.685968,85.3176597,cafe,,,,True,openstreetmap
osm_11257674772,Coffee & Bites,27.7162594,85.3107362,cafe,,,,True,openstreetmap
osm_11259128837,Unknown Cafe,27.7141258,85.334162,cafe,,,,True,openstreetmap
osm_11341043746,Sami croissantery,27.6839466,85.3122468,cafe,,,,True,openstreetmap
osm_11341059021,Mustang coffee,27.6859348,85.3162048,cafe,,,,True,openstreetmap
osm_11341068130,PD Coffee Lab,27.6860176,85.3156255,cafe,,,,True,openstreetmap
osm_11341095597,Bricks cafe,27.6857434,85.3178048,cafe,,,,True,openstreetmap
osm_11343087078,Freak Street Kaffe,27.7030841,85.3076086,cafe,,,,True,openstreetmap
osm_11343090905,Alley's cafe,27.7034519,85.30679,cafe,,,,True,openstreetmap
osm_11343098181,Yatri cafe,27.7034985,85.3066659,cafe,,,,True,openstreetmap
osm_11346408569,Unknown Cafe,27.7281049,85.3698895,cafe,,,,True,openstreetmap
osm_11353483095,Keroneva Cafe,27.6872966,85.3141706,cafe,,,,True,openstreetmap
osm_11353483279,Sesame bakery and coffee,27.6849094,85.3125949,cafe,,,,True,openstreetmap
osm_11353487808,Cuts and coffee,27.685216,85.3129742,cafe,,,,True,openstreetmap
osm_11353732141,Himalayan Java cafe,27.6823415,85.3112206,cafe,,,,True,openstreetmap
osm_11357787082,Nutopia cafe,27.6749306,85.3254956,cafe,,,,True,openstreetmap
osm_11358112380,Kar.ma Coffee,27.6775737,85.3110292,cafe,,,,True,openstreetmap
osm_11359540677,Brewshala,27.6776687,85.3110653,cafe,,,,True,openstreetmap
osm_11359724668,Bahavana coffee,27.7212304,85.3210548,cafe,,,,True,openstreetmap
osm_11359766597,Coffee Escape,27.7185096,85.3176548,cafe,,,,True,openstreetmap
osm_11361310282,Maya the coffee room,27.7136145,85.3125052,cafe,,,,True,openstreetmap
osm_11361362994,Himalayan Java Coffee,27.7153016,85.3133163,cafe,,,,True,openstreetmap
osm_11361370950,Arabica Coffee,27.7154961,85.3130881,cafe,,,,True,openstreetmap
osm_11363394046,Cafe Joshi,27.7374175,85.3344683,cafe,,,,True,openstreetmap
osm_11363642470,Holiday Cafe,27.730786,85.3299385,cafe,,,,True,openstreetmap
osm_11363990194,Filli cafe,27.721161,85.3201245,cafe,,,,True,openstreetmap
osm_11391709036,Kwality cafe,27.726386,85.3233581,cafe,,,,True,openstreetmap
osm_11399486869,SM BAKERY CAFE & GAMING,27.680078,85.3431934,cafe,,,,True,openstreetmap
osm_11414443771,VELLA BIN CAFE,27.6936013,85.2812899,cafe,,,,True,openstreetmap
osm_11500492170,चिया पसल,27.6778061,85.3618548,cafe,,,,True,openstreetmap
osm_11505176620,Mayalu Cafe,27.7352527,85.3054086,cafe,,,,True,openstreetmap
osm_11740544969,Unknown Cafe,27.6762101,85.3189597,cafe,,,,True,openstreetmap
osm_11763991969,Unknown Cafe,27.7130053,85.2896923,cafe,,,,True,openstreetmap
osm_11766248569,Unknown Cafe,27.7073033,85.3334616,cafe,,,,True,openstreetmap
osm_11795541970,Unknown Cafe,27.6759748,85.322936,cafe,,,,True,openstreetmap
osm_11845003096,Nepal Tea Collective,27.7150908,85.3096982,cafe,,,,True,openstreetmap
osm_11861651269,Unknown Cafe,27.68755,85.3278953,cafe,,,,True,openstreetmap
osm_11861654770,Unknown Cafe,27.6894785,85.3281466,cafe,,,,True,openstreetmap
osm_11865745270,Unknown Cafe,27.7328738,85.3148602,cafe,,,,True,openstreetmap
osm_11875471969,Unknown Cafe,27.6720281,85.3463191,cafe,,,,True,openstreetmap
osm_11875473869,Unknown Cafe,27.6716214,85.3458904,cafe,,,,True,openstreetmap
osm_11888609973,Unknown Cafe,27.7000176,85.3677454,cafe,,,,True,openstreetmap
osm_11892660911,Unknown Cafe,27.7050046,85.3503337,cafe,,,,True,openstreetmap
osm_11932964969,Funko Food Cafe,27.6683853,85.3229691,cafe,,,,True,openstreetmap
osm_11933315673,Coffee Break Cafe,27.6667284,85.3244819,cafe,,,,True,openstreetmap
osm_11933327883,Siwakoti Chiya Pasal,27.6654486,85.3242827,cafe,,,,True,openstreetmap
osm_11949744428,Unknown Cafe,27.6736885,85.3730701,cafe,,,,True,openstreetmap
osm_11951494918,Imark Pvt. Ltd,27.7072349,85.3294436,cafe,,,,True,openstreetmap
osm_12039494741,Unknown Cafe,27.7425386,85.3647909,cafe,,,,True,openstreetmap
osm_12228722108,Irani Chiya,27.6724886,85.3565077,cafe,,,,True,openstreetmap
osm_12265498748,Himalayan Java,27.699109,85.3381926,cafe,,,,True,openstreetmap
osm_12655179809,Swostika Khaja Ghar,27.6717363,85.3644536,cafe,,,,True,openstreetmap
osm_12724633923,Cafe 888,27.7232792,85.3601211,cafe,,,,True,openstreetmap
osm_12861994078,Unknown Cafe,27.6767012,85.3162108,cafe,,,,True,openstreetmap
osm_12986924344,CHANDI BRO,27.7424502,85.3297819,cafe,,,,True,openstreetmap
osm_13003480709,Coffee Beans,27.7203493,85.3587164,cafe,,,,True,openstreetmap
osm_13005579746,Filli,27.7213867,85.3613665,cafe,,,,True,openstreetmap
osm_13077621701,Unknown Cafe,27.7232408,85.3309314,cafe,,,,True,openstreetmap
osm_13081786301,Unknown Cafe,27.7369384,85.326424,cafe,,,,True,openstreetmap
osm_13094277803,Unknown Cafe,27.7209449,85.3479979,cafe,,,,True,openstreetmap
osm_13261607701,Unknown Cafe,27.7116394,85.3261359,cafe,,,,True,openstreetmap
osm_13347144911,De' Alpha Cafe,27.7269047,85.3696624,cafe,,,,True,openstreetmap
osm_13350370101,Ek Cup Chiya,27.7230937,85.3199703,cafe,,,,True,openstreetmap
osm_13368597386,The coffee crafter cafe and academy,27.6756497,85.3261245,cafe,,,,True,openstreetmap
osm_13368605218,Drip Inn,27.6753239,85.3263156,cafe,,,,True,openstreetmap
osm_13505896390,The Guchha Momo and Cafe,27.703335,85.3074954,cafe,,,,True,openstreetmap
osm_13505898145,Momoyo,27.7033252,85.3076196,cafe,,,,True,openstreetmap
osm_174284180,Dhokhaima Cafe,27.6782463,85.3209385,cafe,,,,True,openstreetmap
osm_178913935,Royal Alina's Bakery Cafe,27.6883758,85.3332661,cafe,,,,True,openstreetmap
osm_190883502,St. Davis Academy Canteen,27.7311561,85.3492205,cafe,,,,True,openstreetmap
osm_191896691,pandey galli cafe,27.6979263,85.3353561,cafe,,,,True,openstreetmap
osm_194871303,काइजर क्याफे,27.7140917,85.3151222,cafe,,,,True,openstreetmap
osm_203155884,Kathmandu Milkbar,27.6857348,85.3334917,cafe,,,,True,openstreetmap
osm_206617813,How I Met Coffee,27.7149713,85.3091488,cafe,,,,True,openstreetmap
osm_206845158,Fsquare Innomotive Cafe,27.6909208,85.3388556,cafe,,,,True,openstreetmap
osm_206990123,Road House Cafe,27.6508391,85.3016939,cafe,,,,True,openstreetmap
osm_208509600,Ace Food Cafe,27.733023,85.3057825,cafe,,,,True,openstreetmap
osm_209868954,Cafe Chino,27.6793788,85.3203074,cafe,,,,True,openstreetmap
osm_210206513,Prime Cafe,27.6797155,85.2787421,cafe,,,,True,openstreetmap
osm_211750790,Roshan Cold Store,27.6765337,85.3254382,cafe,,,,True,openstreetmap
osm_211905448,Cafe Terrace D'Stupa,27.7210726,85.3624842,cafe,,,,True,openstreetmap
osm_214073220,RDX Cafe,27.6941128,85.336959,cafe,,,,True,openstreetmap
osm_214678173,Himalayan beanz,27.6791697,85.3077801,cafe,,,,True,openstreetmap
osm_215562060,Burger Bites,27.7081426,85.3387271,cafe,,,,True,openstreetmap
osm_220704659,काइजर क्याफे,27.7138528,85.3150863,cafe,,,,True,openstreetmap
osm_285870298,The Yellow House,27.6823471,85.3058938,cafe,,,,True,openstreetmap
osm_298909134,Nanglo Bakery Cafe,27.6961126,85.3079556,cafe,,,,True,openstreetmap
osm_302546450,Chiya Pub,27.7137313,85.3064913,cafe,,,,True,openstreetmap
osm_303141421,nikesh khaja ghar,27.7144292,85.3386096,cafe,,,,True,openstreetmap
osm_303141425,pasang khaja ghar,27.7149996,85.3387006,cafe,,,,True,openstreetmap
osm_329837102,Coffee Shop,27.6766961,85.3256971,cafe,,,,True,openstreetmap
osm_341336357,nepal dairy,27.7054122,85.3123875,cafe,,,,True,openstreetmap
osm_341600445,Himalayan Java 1,27.714949,85.3109555,cafe,,,,True,openstreetmap
osm_347553422,Dev Darsan Cafe,27.7245052,85.3495467,cafe,,,,True,openstreetmap
osm_348491987,Unknown Cafe,27.6853114,85.2832328,cafe,,,,True,openstreetmap
osm_373163129,Dada Cafe,27.7342414,85.3567013,cafe,,,,True,openstreetmap
osm_427163245,Yangtaru Sekuwa Corner,27.7255002,85.3500831,cafe,,,,True,openstreetmap
osm_427163246,Top Ten Momo Center,27.7241735,85.3495426,cafe,,,,True,openstreetmap
osm_440880101,Samjhana's Cafe,27.7201671,85.3614127,cafe,,,,True,openstreetmap
osm_458434935,Aarubari Tea Shop and Bakery,27.735646,85.3771679,cafe,,,,True,openstreetmap
osm_501657270,P.Kathmandu Cafe,27.715951,85.3036895,cafe,,,,True,openstreetmap
osm_501762038,GCafe/GMart,27.7202708,85.3625822,cafe,,,,True,openstreetmap
osm_501925698,Transit Cafe,27.7332513,85.3160903,cafe,,,,True,openstreetmap
osm_550825613,Alsaya Cafe,27.691214,85.3408714,cafe,,,,True,openstreetmap
osm_649068261,The Basement Cafe,27.7293546,85.3421606,cafe,,,,True,openstreetmap
osm_819450587,Bhote ko Hotel,27.7171187,85.3698984,cafe,,,,True,openstreetmap
osm_914756342,Chattu Chai,27.6691432,85.3529639,cafe,,,,True,openstreetmap
osm_915081177,Cake And Bake,27.6887719,85.3309474,cafe,,,,True,openstreetmap
osm_915414544,Chiyawala,27.682676,85.3415434,cafe,,,,True,openstreetmap
osm_916711576,Ujjama Koffie and Books,27.68443,85.3333679,cafe,,,,True,openstreetmap
osm_923705538,Around The Corner,27.7347248,85.3381497,cafe,,,,True,openstreetmap
osm_1033508005,Chibha cafe,27.6759963,85.3205554,cafe,,,,True,openstreetmap
osm_1033508006,The Heritage Cafe,27.6758014,85.3204858,cafe,,,,True,openstreetmap
osm_1044644587,Readers Hub,27.6746421,85.3671075,cafe,,,,True,openstreetmap
osm_1063774289,Makoo Bakery,27.6590449,85.3206183,cafe,,,,True,openstreetmap
osm_1108276897,The Bakery Cafe,27.6887757,85.3344293,cafe,,,,True,openstreetmap
osm_1155153537,cafe,27.7117998,85.2758089,cafe,,,,True,openstreetmap
osm_1164101667,IAAS Cafeteria,27.6751461,85.2874319,cafe,,,,True,openstreetmap
osm_1221253228,Soul Café,27.691806,85.344959,cafe,,,,True,openstreetmap
osm_1221262082,Bodhi Books & Bakes,27.7162616,85.3305527,cafe,,,,True,openstreetmap
osm_1418817749,Mokka Cafe,27.6795159,85.3350168,cafe,,,,True,openstreetmap
